SAMPLINGPOINT_LOCALID,DATETIME_BEGIN,DATETIME_END,PROPERTY,VALUE_NUMERIC,UNIT,STATIONCLASSIFICATION,AREACLASSIFICATION,ALTITUDE,STATIONCODE,STATIONNAME,LONGITUDE,LATITUDE,MUNICIPALITY,CALCULATED
SPO.IT2315A_8_chemi_2021-03-29_00:00:00,20231026000000,20231026000000,NO2,12.46344,Âµg/m3,background,suburban,333.6,IT2315A,San Giovanni La Punta,15.101062000200743,37.57866899982757,"San Giovanni La Punta, Strada Provinciale 8v c/o Istituto Fermi",True
SPO.IT0187A_8_chemi_1990-04-26_00:00:00,20231026000000,20231026000000,NO2,25.47368,Âµg/m3,traffic,urban,8.0,IT0187A,ISONZO,11.613060000433585,44.842499999905414,CORSO ISONZO-VIALE CAVOUR - Ferrara (FE),True
SPO.IT0063A_8_chemi_2000-04-16_00:00:00,20231026000000,20231026000000,NO2,12.25,Âµg/m3,industrial,suburban,37.0,IT0063A,LI-COTONE,10.534167000257758,42.93916700009489,MAGAZZINI COMUNALI - LOC. COTONE - Piombino (LI),True
SPO.IT2308A_8_chemi_2021-04-20_00:00:00,20231026000000,20231026000000,NO2,10.34248,Âµg/m3,background,urban,51.0,IT2308A,Bagheria,13.5041030001804,38.08611099989187,"Bagheria, Via Orazio Costantino c/o Piazza Carlo Doglio",True
SPO.IT2307A_8_chemi_2021-03-22_00:00:00,20231026000000,20231026000000,NO2,2.659273,Âµg/m3,background,suburban,96.3,IT2307A,AG - Monserrato,13.551601000416666,37.299240000193784,"Villasete (AG), Via Fra Simone da Lentini s.n.",True
SPO.IT2306A_8_chemi_2021-03-23_00:00:00,20231026000000,20231026000000,NO2,6.584338,Âµg/m3,background,urban,235.4,IT2306A,AG - Centro,13.589903999914915,37.30641299983269,"Agrigento, Salita Coniglio n.181",True
SPO.IT2305A_8_chemi_2022-03-03_16:00:00,20231026000000,20231026000000,NO2,4.105263,Âµg/m3,background,rural,458.0,IT2305A,Tolfa Braccianese,11.923500000237178,42.152860999850496,via Braccianese-Claudia-tennis club - Tolfa (RM),True
SPO.IT2301A_8_chemi_2021-01-01_00:00:00,20231026000000,20231026000000,NO2,24.14876,Âµg/m3,background,urban,124.0,IT2301A,BRESCIA SAN POLO,10.256370000113122,45.50866999991065, Brescia Via San Polo,True
SPO.IT2300A_8_chemi_2021-01-01_00:00:00,20231026000000,20231026000000,NO2,32.45817,Âµg/m3,traffic,urban,151.0,IT2300A,BRESCIA â VIA TARTAGLIA,10.23193999975451,45.53860999996872,VIA TARTAGLIA - Brescia (BS),True
SPO.IT2297A_8_chemi_2020-02-28_00:00:00,20231026000000,20231026000000,NO2,4.444433,Âµg/m3,background,urban,10.0,IT2297A,PA - UNIPA,13.346530000384933,38.105095999746126,"Palermo, Viale delle Scienze c/o Universita degli studi di Palermo ",True
SPO.IT2324A_8_chemi_2022-10-20_00:00:00,20231026000000,20231026000000,NO2,18.76191,Âµg/m3,background,urban,79.0,IT2324A,Gorizia,13.616126999851385,45.93647800010719,via Duca D'Aosta 117 - Gorizia (GO),True
SPO.IT2318A_8_chemi_2021-03-15_00:00:00,20231026000000,20231026000000,NO2,0.8559417,Âµg/m3,background,rural-regional,186.0,IT2318A,TP - Diga Rubino,12.718020000011954,37.882475999802686,"Trapani, c/o Diga Rubino",True
SPO.IT2317A_8_chemi_2021-04-28_00:00:00,20231026000000,20231026000000,NO2,6.5181,Âµg/m3,background,suburban,68.0,IT2317A,SR - ASP Pizzuta,15.268013999958928,37.085751000148,"Siracusa, Traversa la Pizzuta c/o ASP ",True
SPO.IT2316A_8_chemi_2021-03-30_00:00:00,20231026000000,20231026000000,NO2,10.10785,Âµg/m3,background,suburban,129.4,IT2316A,Solarino,15.131752000448268,37.09627600012151,"Solarino, Circonvallazione Padre Serafino Maria Paolo Gozzo c/o Isola Ecologica",True
SPO.IT2293A_8_chemi_2019-04-30_00:00:00,20231026000000,20231026000000,NO2,20.2915,Âµg/m3,background,urban,0.0,IT2293A,Area verde,13.544499999555388,45.80296000009593,,True
SPO.IT2288A_8_chemi_2018-01-01_00:00:00,20231026000000,20231026000000,NO2,9.29653,Âµg/m3,background,urban,10.0,IT2288A,a2a - Milazzo,15.247567000212703,38.231468999855096,"Milazzo, Salita Cappuccini s.n.",True
SPO.IT2286A_8_chemi_2018-01-01_00:00:00,20231026000000,20231026000000,NO2,12.43,Âµg/m3,industrial,suburban,10.0,IT2286A,VIA DE LITTA - VADO LIGURE,8.445649999836409,44.26179000011638,SOTTOVENTO PIATTAFORMA MAERSK - VADO LIGURE (SV),True
SPO.IT2284A_8_chemi_2018-01-01_00:00:00,20231026000000,20231026000000,NO2,25.30048,Âµg/m3,industrial,suburban,583.0,IT2284A,AOSTA I maggio,7.321889999601491,45.73239999991657,Via I maggio,True
SPO.IT2283A_8_chemi_2019-01-01_00:00:00,20231026000000,20231026000000,NO2,0.9489474,Âµg/m3,background,rural-regional,650.0,IT2283A,Ottati Alburni,15.29873000014572,40.47059000021713,OTTATI,True
SPO.IT0460A_8_chemi_1998-08-02_00:00:00,20231026000000,20231026000000,NO2,33.45625,Âµg/m3,traffic,urban,100.0,IT0460A,JESI,13.245000000387098,43.52694000016027,VIA DEL LAVORO - Jesi (AN),True
SPO.IT0459A_8_chemi_1997-09-02_00:00:00,20231026000000,20231026000000,NO2,20.24375,Âµg/m3,background,suburban,15.0,IT0459A,CHIARAVALLE2,13.34194000005023,43.59888999985952,VIA GRANCETTA - Chiaravalle (AN),True
SPO.IT0448A_8_chemi_1994-01-01_00:00:00,20231026000000,20231026000000,NO2,57.33333,Âµg/m3,background,urban,1.0,IT0448A,VE - Sacca Fisola,12.313889000315374,45.42944399980085,"SACCA FISOLA, VENEZIA",True
SPO.IT0267A_8_chemi_1993-09-01_00:00:00,20231026000000,20231026000000,NO2,15.78608,Âµg/m3,background,suburban,80.0,IT0267A,TAVAZZANO,9.414721999997932,45.3294439997823,Cascina Bagnolo - Tavazzano con Villavesco (LO),True
SPO.IT2258A_8_chemi_2020-08-26_00:00:00,20231026000000,20231026000000,NO2,7.705883,Âµg/m3,background,suburban,15.0,IT02258A,SANTA MARINELLA,11.833491999584291,42.042434000212744,VIA PERSEO DEPURATORE - Santa Marinella(RM),True
SPO.IT2257A_8_chemi_2017-09-29_00:00:00,20231026000000,20231026000000,NO2,4.68421,Âµg/m3,background,suburban,231.0,IT2257A,Monte Romano,11.894314999687424,42.26858500004542,via Giovanni XXIII - Monte Romano (VT),True
SPO.IT2254A_8_chemi_2019-03-19_00:00:00,20231026000000,20231026000000,NO2,2.25,Âµg/m3,background,rural,465.0,IT2254A,Allumiere Aldo Moro,11.900003999839033,42.160965999921366,via Aldo Moro snc - Allumiere (RM),True
SPO.IT2253A_8_chemi_2019-03-28_00:00:00,20231026000000,20231026000000,NO2,9.5,Âµg/m3,background,urban,30.0,IT2253A,S. Gordiano,11.815902999795961,42.07361199972038,"Via del tiro a segno, snc - Civitavecchia (RM)",True
SPO.IT2252A_8_chemi_2016-05-18_00:00:00,20231026000000,20231026000000,NO2,9.65,Âµg/m3,background,urban,19.0,IT2252A,Campo dell'Oro,11.809369000270658,42.081792000259576,Via A. De Gasperi - Civitavecchia (RM),True
SPO.IT2251A_8_chemi_2017-09-26_00:00:00,20231026000000,20231026000000,NO2,3.9,Âµg/m3,background,urban,124.0,IT2251A,Faro,11.817651999891204,42.09883700016232,Via Nuova di S.Liborio snc - Civitavecchia (RM),True
SPO.IT2250A_8_chemi_2016-05-06_00:00:00,20231026000000,20231026000000,NO2,29.4,Âµg/m3,traffic,urban,3.0,IT2250A,Fiumaretta,11.784395999763833,42.102156000192856,"via Tarquinia, 30 - Civitavecchia (RM)",True
SPO.IT2221A_8_chemi_2015-01-01_00:00:00,20231026000000,20231026000000,NO2,18.26842,Âµg/m3,industrial,urban,83.0,IT2221A,Tirrenopower Via Epomeo,14.205670000204073,40.84495000021116,via Epomeo - Napoli (NA),True
SPO.IT2219A_8_chemi_2015-01-01_00:00:00,20231026000000,20231026000000,NO2,28.93684,Âµg/m3,background,urban,27.0,IT2219A,Acerra scuola Caporale,14.36981000003512,40.94108000010671,via Carlo Petrella - Acerra (NA),True
SPO.IT2218A_8_chemi_2015-01-01_00:00:00,20231026000000,20231026000000,NO2,15.06158,Âµg/m3,traffic,suburban,39.0,IT2218A,San Felice a Cancello Complesso scolastico,14.423969999843207,40.99052000031144,via Polvica - San Felice a Cancello (CE),True
SPO.IT2217A_8_chemi_2015-01-01_00:00:00,20231026000000,20231026000000,NO2,18.1035,Âµg/m3,background,suburban,45.0,IT2217A,Torre Annunziata Scuola Media Pascoli,14.438150000027823,40.7605999999606,via Tagliamonte 18 - Torre Annunziata (NA),True
SPO.IT2216A_8_chemi_2015-01-01_00:00:00,20231026000000,20231026000000,NO2,25.70105,Âµg/m3,background,suburban,57.0,IT2216A,Casoria Scuola Palizzi (CAM),14.298659999765096,40.91462999978563,via Duca D'Aosta - Casoria (NA),True
SPO.IT2215A_8_chemi_2015-01-01_00:00:00,20231026000000,20231026000000,NO2,8.840527,Âµg/m3,background,suburban,128.0,IT2215A,Benevento Zona Industriale,14.836139999661176,41.14691000026054,z.i. Ponte Valentino - Benevento (BN),True
SPO.IT2214A_8_chemi_2015-01-01_00:00:00,20231026000000,20231026000000,NO2,24.8275,Âµg/m3,traffic,urban,48.0,IT2214A,Nocera Inferiore scuola Solimene,14.643450000388414,40.74039999976317,via F. Nola - Nocera Inferiore (SA),True
SPO.IT2184A_8_chemi_2014-09-10_00:00:00,20231026000000,20231026000000,NO2,28.52632,Âµg/m3,traffic,urban,316.0,IT2184A,SI-BRACCI,11.32499999969616,43.33779999995746,Viale Bracci - Siena (SI),True
SPO.IT2183A_8_chemi_2014-09-26_00:00:00,20231026000000,20231026000000,NO2,24.05556,Âµg/m3,background,urban,8.0,IT2183A,LI-LA-PIRA,10.332699999823411,43.568900000286774,via la Pira - Livorno (LI),True
SPO.IT2182A_8_chemi_2014-09-30_00:00:00,20231026000000,20231026000000,NO2,9.604,Âµg/m3,background,suburban,771.0,IT2182A,Ugovizza,13.474789999584125,46.51005000001428,via della Stazione - Malborghetto Valbruna (UD),True
SPO.IT2177A_8_chemi_2013-05-01_00:00:00,20231026000000,20231026000000,NO2,33.44616,Âµg/m3,traffic,urban,7.0,IT2177A,San Benedetto del Tronto,13.87944000003779,42.94444000013286,Via Asiago 106 - San Benedetto del Tronto (AP),True
SPO.IT2175A_8_chemi_2014-05-29_00:00:00,20231026000000,20231026000000,NO2,12.55,Âµg/m3,background,urban,145.0,IT2175A,Civita Castellana via Petrarca,12.41319499984181,42.30181200004812,via Petrarca - Civita Castellana (VT),True
SPO.IT2174A_8_chemi_2013-12-18_00:00:00,20231026000000,20231026000000,NO2,12.9,Âµg/m3,traffic,urban,21.0,IT2174A,Latina De Chirico,12.891731000324654,41.45113099980048,via De Chirico - Latina (LT),True
SPO.IT2173A_8_chemi_2013-10-09_00:00:00,20231026000000,20231026000000,NO2,11.45,Âµg/m3,background,urban,3.0,IT2173A,Gaeta Porto,13.570489999863357,41.22308399979161,lungomare Caboto - Gaeta (LT),True
SPO.IT2172A_8_chemi_2012-10-30_00:00:00,20231026000000,20231026000000,NO2,16.55,Âµg/m3,traffic,urban,33.0,IT2172A,Civitavecchia- Villa Albani,11.798339999946895,42.09929600025973,via Pecorelli - Civitavecchia (RM),True
SPO.IT2171A_8_chemi_2013-03-21_00:00:00,20231026000000,20231026000000,NO2,16.6,Âµg/m3,traffic,urban,20.0,IT2171A,Civitavecchia- via Roma,11.795408000369159,42.09412800024229,via Roma - Civitavecchia (RM),True
SPO.IT2156A_8_chemi_2014-01-01_00:00:00,20231026000000,20231026000000,NO2,28.15789,Âµg/m3,traffic,urban,59.0,IT2156A,TIMAVO,10.622778000269593,44.7002779999786,VIALE TIMAVO - Reggio nell'Emilia (RE),True
SPO.IT2155A_8_chemi_2014-09-01_00:00:00,20231026000000,20231026000000,NO2,7.46,Âµg/m3,background,rural-nearcity,450.0,IT2155A,CENGIO - RIO PARASACCO,8.20603999973738,44.397030000245756,VIA MONTALDO - CENGIO (SV),True
SPO.IT2154A_8_chemi_2014-04-10_00:00:00,20231026000000,20231026000000,NO2,12.15,Âµg/m3,background,urban,40.0,IT2154A,LI-PIOMBINO-PARCO-VIII-MARZO,10.524169999803753,42.93194000000992,"Via delle Medaglie d'Oro e della Resistenza, presso parcheggio Parco VIII marzo - Piombino (LI)",True
SPO.IT2153A_8_chemi_2014-01-01_00:00:00,20231026000000,20231026000000,NO2,10.8421,Âµg/m3,background,urban,41.0,IT2153A,FI-SIGNA,11.097779999678622,43.79306000027904,VIA MAESTRO DA SIGNA - Signa (FI),True
SPO.IT2152A_8_chemi_2007-01-01_00:00:00,20231026000000,20231026000000,NO2,16.29571,Âµg/m3,background,suburban,3.0,IT2152A,Edison Torviscosa,13.271399999875575,45.821990000226215,via Marconi - Torviscosa (UD),True
SPO.IT2140A_8_chemi_2014-02-13_00:00:00,20231026000000,20231026000000,NO2,32.1595,Âµg/m3,traffic,urban,116.0,IT2140A,Via S.Daniele,13.229719999662347,46.07083000026408,via San Daniele - Udine (UD),True
SPO.IT2134A_8_chemi_2013-02-05_00:00:00,20231026000000,20231026000000,NO2,7.93,Âµg/m3,background,suburban,95.0,IT2134A,Narni Scalo,12.521939999605424,42.5341700000191,Loc Narni Scalo - Narni (TR),True
SPO.IT2133A_8_chemi_2013-12-21_00:00:00,20231026000000,20231026000000,NO2,8.305715,Âµg/m3,industrial,rural,4.0,IT2133A,A2A Papariano,13.423330000448502,45.79943999980574,"via Brancolo 79, Papariano - Fiumicello (UD)",True
SPO.IT2114A_8_chemi_2013-02-06_00:00:00,20231026000000,20231026000000,NO2,4.665,Âµg/m3,industrial,suburban,623.0,IT2114A,Semonte Alta,12.546944000074388,43.36749999975287,Localitï¿½ Semonte - Gubbio (PG),True
SPO.IT2113A_8_chemi_2013-11-01_00:00:00,20231026000000,20231026000000,NO2,3.41,Âµg/m3,background,suburban,143.0,IT2113A,Ciconia2,12.136667000291707,42.737222000057066,Via dell'Erica Loc. Ciconia - Orvieto (TR),True
SPO.IT2109A_8_chemi_2013-05-15_00:00:00,20231026000000,20231026000000,NO2,11.495,Âµg/m3,background,urban,329.0,IT2109A,Amelia,12.419721999694419,42.55194399969489,Via del Villaggio - Amelia (TR),True
SPO.IT2108A_8_chemi_2012-01-01_00:00:00,20231026000000,20231026000000,NO2,13.25,Âµg/m3,industrial,suburban,344.0,IT2108A,LOCALITA' BRAGNO - CAIRO MONTENOTTE,8.298680000392352,44.3749399996981,VIA SCAIOLA - CAIRO MONTENOTTE (SV),True
SPO.IT2107A_8_chemi_2012-01-01_00:00:00,20231026000000,20231026000000,NO2,6.27,Âµg/m3,industrial,suburban,343.0,IT2107A,LOCALITA' MAZZUCCA - CAIRO MONTENOTTE,8.283799999700685,44.38324999973353,CORSO BRIGATE PARTIGIANE - CAIRO MONTENOTTE (SV),True
SPO.IT2105A_8_chemi_2013-01-01_00:00:00,20231026000000,20231026000000,NO2,6.575,Âµg/m3,background,urban,284.0,IT2105A,C Castello,12.245833000004799,43.45694400001717,Via Luca della Robbia  - Cittï¿½ di Castello (PG),True
SPO.IT2104A_8_chemi_2011-12-14_00:00:00,20231026000000,20231026000000,NO2,15.38095,Âµg/m3,background,suburban,666.0,IT2104A,Trivero - Ronco,8.159800000224994,45.66419999996451,Plesso scolastico fraz. Ronco Trivero (BI),True
SPO.IT2102A_8_chemi_2011-09-30_00:00:00,20231026000000,20231026000000,NO2,20.8,Âµg/m3,traffic,urban,259.0,IT2102A,Omegna - Crusinallo,8.415700000278905,45.898800000179904,"Via 4 novembre 292, frazione Crusinallo",True
SPO.IT2101A_8_chemi_2011-12-21_00:00:00,20231026000000,20231026000000,NO2,23.0,Âµg/m3,background,suburban,271.0,IT2101A,Chieri - Bersezio,7.837500000069335,45.00280000026921,"c/o la Scuola Infanzia B.go Venezia, via Bersezio",True
SPO.IT2064A_8_chemi_2009-06-20_00:00:00,20231026000000,20231026000000,NO2,1.49,Âµg/m3,industrial,suburban,516.0,IT2064A,Ghigiano,12.611667000050915,43.27388899972387,Loc Ghigiano - Gubbio (PG),True
SPO.IT2063A_8_chemi_2011-02-07_00:00:00,20231026000000,20231026000000,NO2,16.62687,Âµg/m3,industrial,rural,48.0,IT2063A,SPINADESCO,9.940277999967842,45.14833299981362,"via Cesare Battisti, 1 - Spinadesco (CR)",True
SPO.IT2062A_8_chemi_2010-02-11_00:00:00,20231026000000,20231026000000,NO2,28.22989,Âµg/m3,background,urban,207.0,IT2062A,DALMiNE - Via Verdi,9.614719999821206,45.643890000040585,Via Verdi - Dalmine (BG),True
SPO.IT2061A_8_chemi_2013-03-08_00:00:00,20231026000000,20231026000000,NO2,6.938461,Âµg/m3,background,suburban,380.0,IT2061A,URBINO - LOC.PIANSEVERO - Via Neruda,12.636390000312485,43.73056000004621,Via Neruda - Loc.Piansevero - Urbino - Urbino (PU),True
SPO.IT2056A_8_chemi_2011-10-14_00:00:00,20231026000000,20231026000000,NO2,26.79637,Âµg/m3,traffic,urban,33.0,IT2056A,CENCA1,9.115000000173476,39.23583300015611,via Cadello  CAGLIARI - Cagliari (CA),True
SPO.IT2012A_8_chemi_2010-02-25_00:00:00,20231026000000,20231026000000,NO2,14.10526,Âµg/m3,background,suburban,62.0,IT2012A,MALAGROTTA,12.345589999617944,41.87478299970997,VIA PAOLO EMILIO PAVOLINI 69/71 - Roma (RM),True
SPO.IT2010A_8_chemi_2011-02-04_00:00:00,20231026000000,20231026000000,NO2,6.099007,Âµg/m3,background,urban,16.0,IT2010A,CENPT1,8.40527799967746,40.831388999757074,via Pascoli PORTO TORRES (SS) - Porto Torres (SS),True
SPO.IT2009A_8_chemi_2012-01-01_00:00:00,20231026000000,20231026000000,NO2,5.22042,Âµg/m3,background,urban,275.0,IT2009A,CENS16,8.57611000011587,40.72443999968323,VIA DE CAROLIS - SASSARI  (SS) - Sassari (SS),True
SPO.IT2008A_8_chemi_2011-02-17_00:00:00,20231026000000,20231026000000,NO2,6.925247,Âµg/m3,background,urban,4.0,IT2008A,CESGI1,8.605278000048871,39.88527800029532,via Pauli Figu S.GIUSTA - Santa Giusta (OR),True
SPO.IT2007A_8_chemi_2010-01-01_00:00:00,20231026000000,20231026000000,NO2,15.52905,Âµg/m3,background,urban,323.0,IT2007A,ERBA- Via Battisti,9.222778000364663,45.809443999864506,Via Battisti - Erba (CO),True
SPO.IT1962A_8_chemi_2010-01-01_00:00:00,20231026000000,20231026000000,NO2,16.09992,Âµg/m3,background,urban,170.0,IT1962A,VENAFRO2,14.033333000067893,41.47888899973556,Via Campania - Venafro (IS),True
SPO.IT1961A_8_chemi_2011-05-10_00:00:00,20231026000000,20231026000000,NO2,1.55,Âµg/m3,background,rural,1639.0,IT1961A,Baceno - Alpe Devero,8.255899999638991,46.31480000028051,Ai Ponti s.n.c. - fraz. Alpe Devero,True
SPO.IT1948A_8_chemi_2009-01-30_00:00:00,20231026000000,20231026000000,NO2,12.47619,Âµg/m3,background,rural,258.0,IT1948A,Vinchio - San Michele,8.31029999964659,44.808000000140524,via San Michele c/o cimitero,True
SPO.IT1947A_8_chemi_2009-07-14_00:00:00,20231026000000,20231026000000,NO2,5.218047,Âµg/m3,background,urban,56.0,IT1947A,CENSA3,9.008889000061771,39.06666700002628,VIA ROSSINI - Sarroch (CA),True
SPO.IT1942A_8_chemi_2010-01-01_00:00:00,20231026000000,20231026000000,NO2,4.0,Âµg/m3,background,rural,40.0,IT1942A,GR-MAREMMA,11.094170000233456,42.67055999970994,LOC. ALBERESE - Grosseto (GR),True
SPO.IT1936A_8_chemi_2008-10-14_00:00:00,20231026000000,20231026000000,NO2,26.85,Âµg/m3,industrial,suburban,1.0,IT1936A,VE - Malcontenta,12.205556000280408,45.43833299970241,Via Lago di Garda,True
SPO.IT1934A_8_chemi_2012-04-01_00:00:00,20231026000000,20231026000000,NO2,32.1,Âµg/m3,traffic,urban,2.0,IT1934A,VE - Via Beccaria,12.22083000025906,45.47556000015723,Via Beccaria,True
SPO.IT1928A_8_chemi_2009-02-25_00:00:00,20231026000000,20231026000000,NO2,15.10526,Âµg/m3,background,suburban,0.0,IT1928A,DELTA CERVIA,12.332222000093372,44.283889000018235,"VIA JELENIA GORA, 6 - Cervia (RA)",True
SPO.IT0694A_8_chemi_1988-11-01_00:00:00,20231026000000,20231026000000,NO2,35.77195,Âµg/m3,traffic,urban,154.0,IT0694A,CINISELLO B.,9.22805999991218,45.551390000106245,VIA LINCOLN - Cinisello Balsamo (MI),True
SPO.IT0692A_8_chemi_1989-01-01_00:00:00,20231026000000,20231026000000,NO2,14.59384,Âµg/m3,industrial,urban,87.0,IT0692A,SANNAZZARO,8.905559999739978,45.101669999828054,VIA ANTONA TRAVERSI 10 - Sannazzaro de' Burgondi (PV),True
SPO.IT0663A_8_chemi_1997-05-15_00:00:00,20231026000000,20231026000000,NO2,17.05263,Âµg/m3,background,urban,190.0,IT0663A,SCHIO,11.368610999579511,45.71444400004657,VIA VECELLIO,True
SPO.IT0643A_8_chemi_2006-01-01_00:00:00,20231026000000,20231026000000,NO2,22.28572,Âµg/m3,traffic,urban,95.0,IT0643A,Alessandria - D'Annunzio,8.611999999895149,44.90659999969814,Piazza D'Annunzio,True
SPO.IT0470A_8_chemi_2008-09-30_00:00:00,20231026000000,20231026000000,NO2,38.66667,Âµg/m3,traffic,urban,233.0,IT0470A,Torino - Rebaudengo,7.6953400001696926,45.10406999997421,Piazza Rebaudengo 23,True
SPO.IT0469A_8_chemi_2008-09-30_00:00:00,20231026000000,20231026000000,NO2,30.25,Âµg/m3,traffic,urban,243.0,IT0469A,Torino - Consolata,7.678199999919931,45.07579999974337,"Via Consolata 10, Torino",True
SPO.IT0463A_8_chemi_2013-05-01_00:00:00,20231026000000,20231026000000,NO2,10.13571,Âµg/m3,industrial,suburban,90.0,IT0463A,FALCONARA ALTA,13.38999999980297,43.62055999987869,VIA 8 MARZO - Falconara Marittima (AN),True
SPO.IT0462A_8_chemi_1990-07-06_00:00:00,20231026000000,20231026000000,NO2,9.053333,Âµg/m3,industrial,suburban,5.0,IT0462A,FALCONARA ACQUEDOTTO,13.370559999812144,43.63610999989359,VIA FIUMESINO - Falconara Marittima (AN),True
SPO.IT0461A_8_chemi_1985-05-16_00:00:00,20231026000000,20231026000000,NO2,23.92143,Âµg/m3,industrial,suburban,10.0,IT0461A,FALCONARA SCUOLA,13.387500000045366,43.6333300000698,VIA CAMPANELLA C/O SCUOLA ELEMENTARE - Falconara Marittima (AN),True
SPO.IT1997A_8_chemi_2009-01-01_00:00:00,20231026000000,20231026000000,NO2,9.563022,Âµg/m3,background,suburban,28.0,IT1997A,Milazzo - Termica,15.249112000093447,38.190607999769306,"Milazzo, Via Carrubbaro n.2-18",True
SPO.IT1996A_8_chemi_2010-04-30_00:00:00,20231026000000,20231026000000,NO2,3.393827,Âµg/m3,background,rural-nearcity,532.0,IT1996A,CENMA1,8.77305599981249,40.25638899976885,via Caria - Macomer (NU),True
SPO.IT1993A_8_chemi_2010-05-24_00:00:00,20231026000000,20231026000000,NO2,4.2852,Âµg/m3,background,urban,15.0,IT1993A,CENMO1,9.136389000276088,39.26055600002213,via Sant'Angelo - Monserrato (CA),True
SPO.IT1977A_8_chemi_2014-01-01_00:00:00,20231026000000,20231026000000,NO2,15.8,Âµg/m3,traffic,urban,5.0,IT1977A,MONTESILVANO,14.148330000222813,42.51750000015406,C.so Umberto - Montesilvano (PE),True
SPO.IT1924A_8_chemi_2008-01-30_00:00:00,20231026000000,20231026000000,NO2,21.68421,Âµg/m3,background,rural,48.0,IT1924A,BESENZONE,10.019166999885282,44.989444000052735,VIA PAVESA BERSANO DI BESENZONE - Besenzone (PC),True
SPO.IT1923A_8_chemi_2006-01-12_00:00:00,20231026000000,20231026000000,NO2,19.78947,Âµg/m3,traffic,urban,61.0,IT1923A,GIORDANI FARNESE,9.693330000079388,45.048890000172946,"VIA GIORDANI, 11 - Piacenza (PC)",True
SPO.IT1921A_8_chemi_2008-07-02_00:00:00,20231026000000,20231026000000,NO2,15.05263,Âµg/m3,background,rural,4.0,IT1921A,GAVELLO,11.177949999886163,44.927840000137806,VIA I.GAZZI LOC GAVELLLO - Mirandola (MO),True
SPO.IT1920A_8_chemi_2007-05-22_00:00:00,20231026000000,20231026000000,NO2,38.0,Âµg/m3,traffic,urban,131.0,IT1920A,SAN FRANCESCO,10.818899999610602,44.541210000317626,CIRCONDARIALE SAN FRANCESCO - Fiorano Modenese (MO),True
SPO.IT1919A_8_chemi_2008-12-17_00:00:00,20231026000000,20231026000000,NO2,14.8421,Âµg/m3,background,rural,0.0,IT1919A,OSTELLATO,11.942222000177603,44.741667000273594,Strada Mezzano - Ostellato (FE),True
SPO.IT1918A_8_chemi_2008-09-18_00:00:00,20231026000000,20231026000000,NO2,14.63158,Âµg/m3,background,urban,9.0,IT1918A,VILLA FULVIA,11.649721999791621,44.82500000026566,Via Mandriole - Ferrara (FE),True
SPO.IT1917A_8_chemi_2008-01-01_00:00:00,20231026000000,20231026000000,NO2,9.368421,Âµg/m3,background,suburban,16.0,IT1917A,CENTO,11.299721999590808,44.7383330002957,Via Parco del Reno - Cento (FE),True
SPO.IT1916A_8_chemi_2008-09-23_00:00:00,20231026000000,20231026000000,NO2,7.736842,Âµg/m3,background,suburban,78.0,IT1916A,VERUCCHIO,12.420000000427077,44.01305599972196,Parco del Marecchia - Verucchio (RN),True
SPO.IT1915A_8_chemi_2008-01-29_00:00:00,20231026000000,20231026000000,NO2,3.578947,Âµg/m3,background,rural,165.0,IT1915A,SAN CLEMENTE,12.627500000071308,43.93277800009781,Via Moretti - San Clemente (RN),True
SPO.IT1889A_8_chemi_2008-04-01_00:00:00,20231026000000,20231026000000,NO2,13.91628,Âµg/m3,background,urban,101.0,IT1889A,Termini Imerese,13.687986999775884,37.97791100016522,"Termini Imerese, Via Vito Jevolella n.2",True
SPO.IT1888A_8_chemi_2008-04-01_00:00:00,20231026000000,20231026000000,NO2,13.91841,Âµg/m3,background,urban,187.0,IT1888A,Partinico,13.118589999768854,38.05016199971391,"Partinico, Piazza Vittorio Emanuele n.51",True
SPO.IT1887A_8_chemi_2015-01-01_00:00:00,20231026000000,20231026000000,NO2,23.52,Âµg/m3,traffic,urban,17.0,IT1887A,VIA BUOZZI - GENOVA,8.911930000132065,44.413939999932246,VIA BUOZZI CO FERMATA METRO DINEGRO - GENOVA (GE),True
SPO.IT1886A_8_chemi_2007-01-01_00:00:00,20231026000000,20231026000000,NO2,6.51,Âµg/m3,traffic,urban,5.0,IT1886A,PIAZZA SAINT BON - LA SPEZIA,9.815870000063148,44.110129999991926,PIAZZA SAINT BON  - LA SPEZIA (SP),True
SPO.IT1884A_8_chemi_2007-01-01_00:00:00,20231026000000,20231026000000,NO2,12.66,Âµg/m3,traffic,urban,7.0,IT1884A,CORSO BUENOS AIRES - GENOVA,8.95012999969815,44.403089999687545,C.SO BUENOS AIRES -P.ZZA PAOLO DA NOVI - GENOVA (GE),True
SPO.IT1883A_8_chemi_2007-01-01_00:00:00,20231026000000,20231026000000,NO2,4.51,Âµg/m3,background,urban,55.0,IT1883A,VARALDO - SAVONA,8.48542000029591,44.31537999989142,VIA AMENDOLA 10 - SAVONA (SV),True
SPO.IT1882A_8_chemi_2019-01-01_00:00:00,20231026000000,20231026000000,NO2,5.64,Âµg/m3,traffic,urban,16.0,IT1882A,PIAZZA BATTISTI - SANREMO,7.772730000237144,43.81412999974878,PIAZZA CESARE BATTISTI - SAN REMO (IM),True
SPO.IT1880A_8_chemi_2007-12-01_00:00:00,20231026000000,20231026000000,NO2,32.4,Âµg/m3,traffic,urban,11.0,IT1880A,PD - Arcella,11.890559999578988,45.43332999997729,Via Guido Reni,True
SPO.IT1878A_8_chemi_2007-02-02_00:00:00,20231026000000,20231026000000,NO2,13.04762,Âµg/m3,background,suburban,131.0,IT1878A,Vercelli - CONI,8.402399999628079,45.31890000026436,"via Donizetti, 15 c/o campo CONI",True
SPO.IT1860A_8_chemi_2012-06-20_00:00:00,20231026000000,20231026000000,NO2,18.01,Âµg/m3,background,urban,319.0,IT1860A,Piazza Vittoria,12.737219999803267,42.73971999971755,Piazza Vittoria - Spoleto (PG),True
SPO.IT1859A_8_chemi_2007-11-16_00:00:00,20231026000000,20231026000000,NO2,30.48571,Âµg/m3,traffic,urban,197.0,IT1859A,TRENTO VBZ,11.110230000034568,46.10434000029117,Via Bolzano - Trento (TN),True
SPO.IT1857A_8_chemi_2007-01-01_00:00:00,20231026000000,20231026000000,NO2,19.8,Âµg/m3,traffic,urban,257.0,IT1857A,TE - Porta Madonna,13.709440000350915,42.65721999998824,Viale Crispi - Teramo (TE),True
SPO.IT1856A_8_chemi_2007-01-01_00:00:00,20231026000000,20231026000000,NO2,7.388889,Âµg/m3,background,urban,673.0,IT1856A,AQ - Amiternum,13.383060000396805,42.36417000025051,Via Amiternum - L'Aquila (AQ),True
SPO.IT1848A_8_chemi_2007-01-15_00:00:00,20231026000000,20231026000000,NO2,4.0,Âµg/m3,background,rural,824.0,IT1848A,BOSCOCHIESANUOVA,11.037780000106187,45.58999999971279,Loc. Zambelli,True
SPO.IT1847A_8_chemi_2006-01-01_00:00:00,20231026000000,20231026000000,NO2,12.80952,Âµg/m3,traffic,suburban,1077.0,IT1847A,Oulx - Roma,6.835899999876582,45.034799999752245,Via Roma angolo via Des Moines,True
SPO.IT1843A_8_chemi_2006-01-01_00:00:00,20231026000000,20231026000000,NO2,27.97692,Âµg/m3,background,urban,150.0,IT1843A,MONTICELLI,13.619440000093947,42.84860999988261,Quartiere Monticelli - Zona Velodromo - Ascoli Piceno (AP),True
SPO.IT1842A_8_chemi_2006-01-01_00:00:00,20231026000000,20231026000000,NO2,2.922222,Âµg/m3,background,rural-regional,1000.0,IT1842A,MONTEMONACO,13.336670000198277,42.90055999989807,CONTRADA S. MICHELE - Montemonaco (AP),True
SPO.IT1798A_8_chemi_2006-02-01_00:00:00,20231026000000,20231026000000,NO2,13.89156,Âµg/m3,background,urban,650.0,IT1798A,CAMPOBASSO3,14.674722000243898,41.55416699991455,VIA LOMBARDIA - Campobasso (CB),True
SPO.IT1796A_8_chemi_2006-02-20_00:00:00,20231026000000,20231026000000,NO2,10.50769,Âµg/m3,background,rural,110.0,IT1796A,Civitanova IPPODROMO S. MARONE,13.674719999635336,43.33555999967512,Via Asola - Civitanova Marche (MC),True
SPO.IT1795A_8_chemi_2006-02-20_00:00:00,20231026000000,20231026000000,NO2,12.95833,Âµg/m3,background,suburban,225.0,IT1795A,Macerata COLLEVARIO,13.428610000346197,43.28499999989706,Via G. Verga - Macerata (MC),True
SPO.IT1794A_8_chemi_2009-01-01_00:00:00,20231026000000,20231026000000,NO2,9.014257,Âµg/m3,background,urban,10.0,IT1794A,Pace del Mela,15.31006400006801,38.20555599995383,"Pace del Mela, Frazione Giammoro, c.da Gabbia c/o Scuola ",True
SPO.IT1791A_8_chemi_2006-07-18_00:00:00,20231026000000,20231026000000,NO2,3.666667,Âµg/m3,background,rural,1366.0,IT1791A,ASIAGO - CIMA EKAR,11.569166999619615,45.84833299991201,Cima Ekar,True
SPO.IT1790A_8_chemi_2006-05-30_00:00:00,20231026000000,20231026000000,NO2,4.6,Âµg/m3,background,rural,615.0,IT1790A,PIEVE D'ALPAGO,12.360832999634455,46.16249999969589,"localitï¿½ Villa, via 1 maggio",True
SPO.IT1737A_8_chemi_2013-01-21_18:00:00,20231026000000,20231026000000,NO2,13.02776,Âµg/m3,background,urban,70.0,IT1737A,BRESCIA VILLAGGIO SERENO,10.219444000266128,45.51527799979404,Traversa IV - Brescia (BS),True
SPO.IT1736A_8_chemi_2005-07-28_00:00:00,20231026000000,20231026000000,NO2,14.41634,Âµg/m3,background,rural,74.0,IT1736A,CORNALE,8.914999999802067,45.040832999943014,via Libert? co cimitero comunale - Cornale (PV),True
SPO.IT1735A_8_chemi_2005-07-04_00:00:00,20231026000000,20231026000000,NO2,17.64537,Âµg/m3,background,urban,90.0,IT1735A,VOGHERA - VIA POZZONI,9.009443999905551,45.00027799994541,Via Pozzoni - Voghera (PV),True
SPO.IT1734A_8_chemi_2006-02-15_00:00:00,20231026000000,20231026000000,NO2,17.27578,Âµg/m3,background,suburban,237.0,IT1734A,VALMADRERA,9.348890000158756,45.84082999998571,via Monsignor Pozzi - Valmadrera (LC),True
SPO.IT1648A_8_chemi_2002-10-24_00:00:00,20231026000000,20231026000000,NO2,20.44439,Âµg/m3,background,suburban,320.0,IT1648A,CANTU - VIA MEUCCI,9.125830000305609,45.72721999992814,VIA MEUCCI - Cantï¿½ (CO),True
SPO.IT1646A_8_chemi_2002-04-01_00:00:00,20231026000000,20231026000000,NO2,15.71998,Âµg/m3,background,suburban,47.0,IT1646A,SAN ROCCO AL PORTO,9.713889999803518,45.081991889689114,Via Matteotti - San Rocco al Porto (LO),True
SPO.IT1644A_8_chemi_2011-06-15_00:00:00,20231026000000,20231026000000,NO2,4.210526,Âµg/m3,background,rural,120.0,IT1644A,LU-CARIGNANO,10.45361000043593,43.86889000029679,LOC. CARIGNANO - Lucca (LU),True
SPO.IT1619A_8_chemi_2004-05-04_00:00:00,20231026000000,20231026000000,NO2,9.7,Âµg/m3,background,suburban,263.0,IT1619A,AREA FELTRINA,11.905832999732725,46.03083300014414,"VIA COLOMBO, 18",True
SPO.IT1596A_8_chemi_2004-06-01_00:00:00,20231026000000,20231026000000,NO2,12.21053,Âµg/m3,background,rural,14.0,IT1596A,MANSUE',12.510277999620076,45.8369440001307,VIA CORNARE',True
SPO.IT1594A_8_chemi_2004-01-14_00:00:00,20231026000000,20231026000000,NO2,13.8,Âµg/m3,background,urban,401.0,IT1594A,BL - Parco Cittï¿½ di Bologna,12.216943999731054,46.14138899989431,PARCO CITTA' DI BOLOGNA,True
SPO.IT1593A_8_chemi_2010-01-01_00:00:00,20231026000000,20231026000000,NO2,16.68421,Âµg/m3,background,urban,10.0,IT1593A,GR-URSS,11.119169999606145,42.77861000026988,VIA URSS - Grosseto (GR),True
SPO.IT1548A_8_chemi_2002-12-31_00:00:00,20231026000000,20231026000000,NO2,3.25,Âµg/m3,background,rural-nearcity,275.0,IT1548A,BOLANO,9.897689999733418,44.18308999997946,Strada provinciale BOLANO - BOLANO (SP),True
SPO.IT1547A_8_chemi_2002-06-26_00:00:00,20231026000000,20231026000000,NO2,6.85,Âµg/m3,industrial,suburban,176.0,IT1547A,SAN VENERIO - LA SPEZIA,9.865709999873273,44.128649999980375,VIA S.ROCCO - LOCALITA' S.VENERIO - LA SPEZIA (SP),True
SPO.IT1546A_8_chemi_2002-07-02_00:00:00,20231026000000,20231026000000,NO2,0.38,Âµg/m3,industrial,suburban,21.0,IT1546A,LE GRAZIE - PORTOVENERE,9.838949999636371,44.06466000001118,VIA DEGLI SCAVI ROMANI (VARIGNANO VECCHIO) - PORTOVENERE (SP),True
SPO.IT1544A_8_chemi_2002-09-26_00:00:00,20231026000000,20231026000000,NO2,2.45,Âµg/m3,industrial,urban,3.0,IT1544A,FOSSAMASTRA - LA SPEZIA,9.857700000064204,44.10665999999006,"VIALE S.BARTOLOMEO, CO SCUOLA SCARPATO - LA SPEZIA (SP)",True
SPO.IT1487A_8_chemi_2015-09-01_00:00:00,20231026000000,20231026000000,NO2,46.25765,Âµg/m3,traffic,urban,68.0,IT1487A,CE52 SCUOLA DE AMICIS,14.331219999583377,41.07795000001848,"CORSO GIANNONE,5 - Caserta (CE)",True
SPO.IT1486A_8_chemi_1994-07-02_00:00:00,20231026000000,20231026000000,NO2,10.1515,Âµg/m3,background,urban,68.0,IT1486A,CE51 ISTITUTO MANZONI,14.344720000250744,41.08444000010625,VIA DE GASPERI - Caserta (CE),True
SPO.IT1914A_8_chemi_2008-05-01_00:00:00,20231026000000,20231026000000,NO2,21.42105,Âµg/m3,background,rural,22.0,IT1914A,SAN ROCCO,10.663889000395336,44.87305599987636,Via della Madonnina - Guastalla (RE),True
SPO.IT1911A_8_chemi_2008-02-02_00:00:00,20231026000000,20231026000000,NO2,13.57895,Âµg/m3,background,rural,202.0,IT1911A,BADIA,10.288888999923518,44.65750000024565,"VIA DELLA BADIA, BADIA DI TORRECHIARA - Langhirano (PR)",True
SPO.IT1910A_8_chemi_2008-03-04_00:00:00,20231026000000,20231026000000,NO2,20.57895,Âµg/m3,background,suburban,30.0,IT1910A,SARAGAT,10.37083300034066,44.9261110001863,VIA SARAGAT - Colorno (PR),True
SPO.IT1908A_8_chemi_2008-08-01_00:00:00,20231026000000,20231026000000,NO2,25.42105,Âµg/m3,background,suburban,32.0,IT1908A,SAVIGNANO,12.402500000327207,44.09583299981162,Via Donati 2 - Savignano sul Rubicone (FC),True
SPO.IT1906A_8_chemi_2008-02-03_00:00:00,20231026000000,20231026000000,NO2,26.52632,Âµg/m3,background,urban,17.0,IT1906A,ARENULA,12.475387000098591,41.89397099978774,Piazza Cairoli adiacente via dei Giubbonari - Roma (RM),True
SPO.IT1905A_8_chemi_2008-06-01_00:00:00,20231026000000,20231026000000,NO2,24.15,Âµg/m3,background,urban,33.0,IT1905A,VI - Ferrovieri,11.521943999742959,45.5319440002516,Via Baracca,True
SPO.IT1904A_8_chemi_2009-01-05_00:00:00,20231026000000,20231026000000,NO2,2.857143,Âµg/m3,background,rural,620.0,IT1904A,Dernice - Costa,9.052400000386008,44.76329999986567,Strada Comunale della Costa,True
SPO.IT1903A_8_chemi_2008-04-01_00:00:00,20231026000000,20231026000000,NO2,22.80952,Âµg/m3,traffic,urban,119.0,IT1903A,Asti - Baussano,8.197500000198886,44.89420000023054,c.so Don G. Minzoni c/o cortile Scuola Baussano,True
SPO.IT1877A_8_chemi_2007-03-29_00:00:00,20231026000000,20231026000000,NO2,30.38095,Âµg/m3,background,urban,260.0,IT1877A,Torino - Rubino,7.625899999636856,45.04189999981362,via Edoardo Rubino c/o giardini Rubino,True
SPO.IT1876A_8_chemi_2006-06-30_00:00:00,20231026000000,20231026000000,NO2,18.83511,Âµg/m3,background,suburban,273.0,IT1876A,CALUSCO,9.466666999555454,45.68333299976486,Via caduti sul lavoro - Calusco d'Adda (BG),True
SPO.IT1874A_8_chemi_2007-10-10_00:00:00,20231026000000,20231026000000,NO2,13.09565,Âµg/m3,industrial,urban,6.0,IT1874A,PARONA,8.754719999661441,45.28110999980102,Via della Miseria 3 - Parona (PV),True
SPO.IT1873A_8_chemi_2006-11-05_00:00:00,20231026000000,20231026000000,NO2,25.47485,Âµg/m3,background,urban,215.0,IT1873A,FERNO,8.749999999630399,45.61667000005815,Via Alfredo di Dio - Ferno (VA),True
SPO.IT1841A_8_chemi_2006-12-04_00:00:00,20231026000000,20231026000000,NO2,23.10526,Âµg/m3,traffic,urban,134.0,IT1841A,CIAMPINO,12.607028000210725,41.79788099974755,Via mura dei francesi fronte ingresso parco Aldo Moro - Ciampino (RM),True
SPO.IT1838A_8_chemi_2007-01-01_00:00:00,20231026000000,20231026000000,NO2,31.0,Âµg/m3,traffic,urban,35.0,IT1838A,VI - San Felice,11.534169999792917,45.54583000029207,Corso San Felice - Vicenza,True
SPO.IT1837A_8_chemi_2006-12-17_00:00:00,20231026000000,20231026000000,NO2,47.52632,Âµg/m3,traffic,urban,17.0,IT1837A,FERMI,12.469569999900463,41.863992999785715,"P.ZZA E. FERMI, FRONTE CIVICO16 - Roma (RM)",True
SPO.IT1836A_8_chemi_2006-12-17_00:00:00,20231026000000,20231026000000,NO2,32.45,Âµg/m3,background,urban,24.0,IT1836A,CIPRO,12.447588000319238,41.90635599971571,"VIA DELLA MELORIA, FRONTE CIVICO 27 - Roma (RM)",True
SPO.IT1835A_8_chemi_2019-03-18_00:00:00,20231026000000,20231026000000,NO2,31.21053,Âµg/m3,background,urban,36.0,IT1835A,BUFALOTTA,12.533666999888098,41.94765399996921,"VIA MONTE CANDA, ADIACENTE CIVICO 12 - Roma (RM)",True
SPO.IT1834A_8_chemi_2006-12-06_00:00:00,20231026000000,20231026000000,NO2,28.16667,Âµg/m3,traffic,urban,26.0,IT1834A,TIBURTINA,12.548853999828113,41.91026800012512,"VIA TIBURTINA, ADIACENTE CIVICO 654 - Roma (RM)",True
SPO.IT1833A_8_chemi_2007-06-01_00:00:00,20231026000000,20231026000000,NO2,26.90476,Âµg/m3,industrial,urban,200.0,IT1833A,CHIAMPO,11.293280999951929,45.53636000005416,Via dei Laghi,True
SPO.IT1830A_8_chemi_2006-01-01_00:00:00,20231026000000,20231026000000,NO2,14.42857,Âµg/m3,background,urban,91.0,IT1830A,Alessandria - Volta,8.623199999923134,44.92029999973801,"via Spalto Marengo, 38",True
SPO.IT1788A_8_chemi_2006-11-07_00:00:00,20231026000000,20231026000000,NO2,16.28572,Âµg/m3,background,suburban,240.0,IT1788A,Ivrea - Liberazione,7.878000000274802,45.451200000144546,"Viale della Liberazione, 1",True
SPO.IT1773A_8_chemi_2006-10-01_00:00:00,20231026000000,20231026000000,NO2,6.421429,Âµg/m3,background,rural-regional,550.0,IT1773A,Genga -Parco Gola della Rossa,12.95221999961863,43.46806000030814,Piani di Rocchetta - Genga (AN),True
SPO.IT1771A_8_chemi_2005-11-16_00:00:00,20231026000000,20231026000000,NO2,22.26316,Âµg/m3,background,urban,34.0,IT1771A,PARCO FERRARI,10.906329999789763,44.65060999989615,PARCO FERRARI - Modena (MO),True
SPO.IT1766A_8_chemi_2004-01-01_00:00:00,20231026000000,20231026000000,NO2,4.82992,Âµg/m3,industrial,rural-nearcity,325.0,IT1766A,Firmo,16.193969999806423,39.71376000017336,Contrada Cerzitello - Firmo (CS),True
SPO.IT1751A_8_chemi_2012-01-01_00:00:00,20231026000000,20231026000000,NO2,0.0,Âµg/m3,industrial,suburban,400.0,IT1751A,SARISSOLA - BUSALLA,8.951040000267488,44.57401999969354,VIA MACCIO - BUSALLA (GE),True
SPO.IT1746A_8_chemi_2006-01-20_00:00:00,20231026000000,20231026000000,NO2,10.81623,Âµg/m3,industrial,rural,88.0,IT1746A,FERRERA ERBOGNONE - Eni,8.87500000008711,45.11444399992528,via Vigne - Circonvallazione sud - Ferrera Erbognone (PV),True
SPO.IT1744A_8_chemi_2006-05-30_00:00:00,20231026000000,20231026000000,NO2,4.9186,Âµg/m3,industrial,suburban,245.0,IT1744A,La Martella,16.54714599998245,40.68665299973604,Zona Industriale La Martella - Matera (MT),True
SPO.IT1728A_8_chemi_2004-04-01_00:00:00,20231026000000,20231026000000,NO2,7.76,Âµg/m3,background,urban,138.0,IT1728A,Le Grazie,12.65167000013892,42.55222000007139,via Benedetto Croce - Terni (TR),True
SPO.IT1718A_8_chemi_1993-09-01_00:00:00,20231026000000,20231026000000,NO2,44.17531,Âµg/m3,traffic,urban,38.0,IT1718A,CT - Viale Vittorio Veneto,15.097210999832834,37.51580800014355,"Catania, Viale Vittorio Veneto n.1",True
SPO.IT1698A_8_chemi_2005-01-01_00:00:00,20231026000000,20231026000000,NO2,27.41,Âµg/m3,traffic,urban,75.0,IT1698A,CORSO EUROPA - VIA S. MARTINO - GENOVA,8.968189999664675,44.404920000183864,CONFLUENZA C.SO EUROPA VIA S.MARTINO - GENOVA (GE),True
SPO.IT1692A_8_chemi_2007-06-23_00:00:00,20231026000000,20231026000000,NO2,43.44584,Âµg/m3,background,urban,122.0,IT1692A,MILANO PASCAL CITTï¿½ STUDI,9.235830000420053,45.47832999988908,via Pascal - Milano (MI),True
SPO.IT1681A_8_chemi_2005-04-23_00:00:00,20231026000000,20231026000000,NO2,1.578947,Âµg/m3,background,rural,650.0,IT1681A,AR-CASA-STABBI,11.901670000093603,43.66027999997878,- LOC. CASA STABBI - Chitignano (AR),True
SPO.IT1676A_8_chemi_2008-07-01_00:00:00,20231026000000,20231026000000,NO2,27.95238,Âµg/m3,traffic,urban,157.0,IT1676A,Novara - Roma,8.61970000008282,45.44030000024955,Viale Roma 7/e,True
SPO.IT1592A_8_chemi_2016-01-14_00:00:00,20231026000000,20231026000000,NO2,37.65,Âµg/m3,traffic,urban,10.0,IT1592A,GR-SONNINO,11.1099999998808,42.762499999894025,VIALE SONNINO - Grosseto (GR),True
SPO.IT1590A_8_chemi_2004-01-01_00:00:00,20231026000000,20231026000000,NO2,23.45,Âµg/m3,background,urban,15.0,IT1590A,TV - Via Lancieri di Novara,12.238610999668012,45.67249999984498,VIA LANCIERI DI NOVARA,True
SPO.IT1588A_8_chemi_2003-08-07_00:00:00,20231026000000,20231026000000,NO2,31.82588,Âµg/m3,traffic,urban,388.0,IT1588A,VARESE - VIA COPELLI,8.820277999864233,45.81694400016833,"Via Copelli, 9 - Varese (VA)",True
SPO.IT1578A_8_chemi_2003-01-31_00:00:00,20231026000000,20231026000000,NO2,6.635714,Âµg/m3,background,suburban,20.0,IT1578A,VIA SCARPELLINI,12.918889999871414,43.893329999783504,VIA SCARPELLINI - Pesaro (PU),True
SPO.IT1576A_8_chemi_2001-03-29_00:00:00,20231026000000,20231026000000,NO2,1.41164,Âµg/m3,background,suburban,25.0,IT1576A,CENPS7,8.386111000396424,39.20333300001371,VIA 1Â° MAGGIO - NORD OVEST DALLA Z.I. - Portoscuso (CI),True
SPO.IT1535A_8_chemi_2001-07-01_00:00:00,20231026000000,20231026000000,NO2,23.57143,Âµg/m3,background,urban,25.0,IT1535A,LEGNAGO,11.311388999599028,45.18361099970067,VIA TOGLIATTI,True
SPO.IT1533A_8_chemi_2006-01-01_00:00:00,20231026000000,20231026000000,NO2,21.14286,Âµg/m3,traffic,urban,130.0,IT1533A,Vercelli - Gastaldi,8.415100000229282,45.32840000008707,"Corso Gastaldi, 16",True
SPO.IT1532A_8_chemi_2004-01-01_00:00:00,20231026000000,20231026000000,NO2,13.66667,Âµg/m3,background,urban,344.0,IT1532A,Borgosesia - Tonella,8.283500000125029,45.713199999749165,Via V. Veneto - Area Tonella,True
SPO.IT1529A_8_chemi_2004-01-01_00:00:00,20231026000000,20231026000000,NO2,19.0,Âµg/m3,background,urban,550.0,IT1529A,Cuneo - Alpini,7.538200000019271,44.38180000028484,Piazza II Reggimento Alpini,True
SPO.IT1524A_8_chemi_2004-01-01_00:00:00,20231026000000,20231026000000,NO2,21.0,Âµg/m3,background,urban,164.0,IT1524A,Alba - Tanaro,8.033300000093384,44.703699999738134,Via Tanaro nei pressi del mercato ortofrutticolo,True
SPO.IT1523A_8_chemi_2002-03-17_00:00:00,20231026000000,20231026000000,NO2,18.14286,Âµg/m3,background,urban,150.0,IT1523A,Asti - D'Acquisto,8.205499999962214,44.90890000003475,Via Salvo D'Acquisto 18,True
SPO.IT1519A_8_chemi_2000-07-01_00:00:00,20231026000000,20231026000000,NO2,6.888889,Âµg/m3,background,rural,392.0,IT1519A,Saliceto - Moizo,8.169499999679763,44.41219999992743,Via Monsignor G.Moizio,True
SPO.IT1510A_8_chemi_2005-01-01_00:00:00,20231026000000,20231026000000,NO2,14.35,Âµg/m3,background,urban,203.0,IT1510A,Verbania - Gabardi,8.565500000091765,45.93029999978821,Via Filatoio 36 c/o asilo Gabardi,True
SPO.IT1509A_8_chemi_2000-01-03_00:00:00,20231026000000,20231026000000,NO2,16.71428,Âµg/m3,background,suburban,124.0,IT1509A,Cerano - Bagno,8.786100000370277,45.40970000023767,Via Bagno 10 c/o campo sportivo,True
SPO.IT1457A_8_chemi_2008-01-01_00:00:00,20231026000000,20231026000000,NO2,3.39,Âµg/m3,traffic,urban,3.0,IT1457A,AMENDOLA - LA SPEZIA,9.818700000431953,44.101649999687304,VIALE AMENDOLA ANGOLO PIAZZA CHIODO - LA SPEZIA (SP),True
SPO.IT1456A_8_chemi_2000-01-01_00:00:00,20231026000000,20231026000000,NO2,2.45,Âµg/m3,traffic,urban,2.0,IT1456A,SAN CIPRIANO - LIBERTA - LA SPEZIA,9.832109999789319,44.110810000252584,VIALE S.CIPRIANO ANGOLO PIAZZA LIBERTA - LA SPEZIA (SP),True
SPO.IT1453A_8_chemi_1999-01-01_00:00:00,20231026000000,20231026000000,NO2,25.1,Âµg/m3,background,urban,13.0,IT1453A,PD - Mandria,11.841944000157554,45.37194400030838,VIA CA' RASI,True
SPO.IT1451A_8_chemi_2001-01-01_00:00:00,20231026000000,20231026000000,NO2,9.684211,Âµg/m3,background,rural,11.0,IT1451A,SAN PIETRO CAPOFIUME,11.639444000028536,44.662221999919964,VIA IDICE ABBANDONATO - Molinella (BO),True
SPO.IT1449A_8_chemi_2018-01-01_00:00:00,20231026000000,20231026000000,NO2,4.144706,Âµg/m3,background,suburban,50.0,IT1449A,a2a - San Filippo del Mela,15.271442999654129,38.17462400021944,"San Filippo del Mela, Via Alessandro Cocuzza s.n.",True
SPO.IT1440A_8_chemi_1983-05-02_00:00:00,20231026000000,20231026000000,NO2,5.902121,Âµg/m3,background,suburban,150.0,IT1440A,SR - Belvedere,15.20871200034541,37.09397299978568,"Siracusa, Via Maria Montessori",True
SPO.IT1464A_8_chemi_2006-01-01_00:00:00,20231026000000,20231026000000,NO2,26.67842,Âµg/m3,background,rural,115.0,IT1464A,CASIRATE D'ADDA,9.556388999978074,45.49750000024328,VIA CIMITERO - Casirate d'Adda (BG),True
SPO.IT1463A_8_chemi_2000-04-01_00:00:00,20231026000000,20231026000000,NO2,24.75905,Âµg/m3,background,suburban,182.0,IT1463A,OSIO SOTTO,9.611543500382695,45.620582559895354,"VIA PER LEVANTE, 40 - Osio Sotto (BG)",True
SPO.IT1459A_8_chemi_1999-02-01_00:00:00,20231026000000,20231026000000,NO2,19.68727,Âµg/m3,background,suburban,206.0,IT1459A,BUSTO ARSIZIO - ACCAM,8.834492439660211,45.582887139943594,via Novara angolo via Liguria - Busto Arsizio (VA),True
SPO.IT1375A_8_chemi_2000-12-02_00:00:00,20231026000000,20231026000000,NO2,8.844573,Âµg/m3,background,rural,124.0,IT1375A,CENNM1,9.015277999822118,39.443610999662695,HOTEL GARDEN - Nuraminis (CA),True
SPO.IT1365A_8_chemi_2000-01-02_00:00:00,20231026000000,20231026000000,NO2,11.365,Âµg/m3,background,urban,156.0,IT1365A,BORGO RIVO,12.623610000243657,42.5819399997074,"VIA TERRE ARNOLFE, 10 - Terni (TR)",True
SPO.IT1361A_8_chemi_2002-01-01_00:00:00,20231026000000,20231026000000,NO2,21.81429,Âµg/m3,traffic,urban,20.0,IT1361A,VIA MONTEGRAPPA,13.018609999674636,43.83972000018544,VIA MONTEGRAPPA - Fano (PU),True
SPO.IT1348A_8_chemi_2017-04-01_00:00:00,20231026000000,20231026000000,NO2,20.33587,Âµg/m3,traffic,urban,9.0,IT1348A,SR - Pantheon,15.285330999760694,37.06776799968129,"Siracusa, Piazza Pantheon n.18",True
SPO.IT1346A_8_chemi_2002-07-20_00:00:00,20231026000000,20231026000000,NO2,7.83556,Âµg/m3,traffic,urban,62.0,IT1346A,SR - Verga,15.285297000323823,37.09129499965346,"Siracusa, Via Madre Teresa di Calcutta c/o Istituto Verga",True
SPO.IT1340A_8_chemi_1985-01-02_00:00:00,20231026000000,20231026000000,NO2,20.0,Âµg/m3,traffic,urban,30.0,IT1340A,SAN BONIFACIO,11.286109999668767,45.399999999874694,VIA FIUME,True
SPO.IT1336A_8_chemi_1994-01-02_00:00:00,20231026000000,20231026000000,NO2,32.33333,Âµg/m3,traffic,urban,62.0,IT1336A,VR - Borgo Milano,10.963889999879049,45.445279999989495,CORSO MILANO,True
SPO.IT1335A_8_chemi_1990-09-25_00:00:00,20231026000000,20231026000000,NO2,16.83875,Âµg/m3,traffic,urban,297.0,IT1335A,ME1 Merano,11.161629999794052,46.66199999971489,VIA TROGMANN - Merano (BZ),True
SPO.IT1334A_8_chemi_1998-10-21_00:00:00,20231026000000,20231026000000,NO2,28.06286,Âµg/m3,traffic,urban,260.0,IT1334A,BZ5 Bolzano,11.339969999901198,46.49546999979077,PIAZZA ADRIANO - Bolzano (BZ),True
SPO.IT1328A_8_chemi_2003-07-15_00:00:00,20231026000000,20231026000000,NO2,19.36842,Âµg/m3,background,urban,72.0,IT1328A,CONEGLIANO,12.30805600022372,45.890555999687564,VIA KENNEDY,True
SPO.IT1208A_8_chemi_2007-06-08_00:00:00,20231026000000,20231026000000,NO2,12.36842,Âµg/m3,traffic,urban,8.0,IT1208A,PE - VIA SACCO,14.197499999663119,42.451940000108046,VIA SACCO - Pescara (PE),True
SPO.IT1204A_8_chemi_1999-03-30_00:00:00,20231026000000,20231026000000,NO2,20.63158,Âµg/m3,background,urban,4.0,IT1204A,CAORLE,12.225556000137887,44.419999999965924,VIA CAORLE - Ravenna (RA),True
SPO.IT1200A_8_chemi_1998-12-29_00:00:00,20231026000000,20231026000000,NO2,32.57895,Âµg/m3,traffic,urban,162.0,IT1200A,FROSINONE SCALO,13.330916999574251,41.62431100013702,VIA VERDI ANGOLO VIA PUCCINI - Frosinone (FR),True
SPO.IT1193A_8_chemi_1998-12-02_00:00:00,20231026000000,20231026000000,NO2,8.042176,Âµg/m3,industrial,suburban,561.0,IT1193A,MELFI,15.639964999778826,40.98410000015166,AREA AIAS - Melfi (PZ),True
SPO.IT1192A_8_chemi_1998-10-16_00:00:00,20231026000000,20231026000000,NO2,6.69,Âµg/m3,traffic,suburban,350.0,IT1192A,CARCARE,8.290109999818315,44.365329999871534,VIA NAZIONALE - CARCARE (SV),True
SPO.IT1191A_8_chemi_1998-10-01_00:00:00,20231026000000,20231026000000,NO2,5.277619,Âµg/m3,background,rural,1601.0,IT1191A,MONTE GAZA,10.958040000068957,46.082530000183,MALGA GAZA - Vallelaghi (TN),True
SPO.IT1190A_8_chemi_1998-09-01_00:00:00,20231026000000,20231026000000,NO2,0.0,Âµg/m3,background,urban,262.0,IT1190A,MORBEGNO,9.566389999731724,46.131669999725915,VIA CORTIVACCI - Morbegno (SO),True
SPO.IT1152A_8_chemi_2001-01-01_00:00:00,20231026000000,20231026000000,NO2,23.57895,Âµg/m3,background,suburban,25.0,IT1152A,REMESINA,10.883650000249624,44.79942999977447,V. REMESINA - ANG. V. MAGAZZENO - Carpi (MO),True
SPO.IT1149A_8_chemi_2012-06-13_00:00:00,20231026000000,20231026000000,NO2,1.842105,Âµg/m3,background,suburban,353.0,IT1149A,PI-MONTECERBOLI,10.88166699980265,43.24777800000559,VIA MANZONI  C/O CAMPO SPORTIVO - Pomarance (PI),True
SPO.IT1145A_8_chemi_1997-10-16_00:00:00,20231026000000,20231026000000,NO2,6.69,Âµg/m3,traffic,urban,12.0,IT1145A,CORSO RICCI - SAVONA,8.472929999756992,44.312679999990856,CORSO RICCI (IPERCOOP) - SAVONA (SV),True
SPO.IT1144A_8_chemi_1997-10-16_00:00:00,20231026000000,20231026000000,NO2,20.12,Âµg/m3,industrial,suburban,16.0,IT1144A,MERCATO GENERALE - QUILIANO,8.431689999759818,44.28708999993038,VIA PILALUNGA - QUILIANO (SV),True
SPO.IT1143A_8_chemi_1997-10-16_00:00:00,20231026000000,20231026000000,NO2,11.3,Âµg/m3,traffic,urban,0.0,IT1143A,VIA AURELIA - VIA FERRARIS - VADO L.,8.438919999594212,44.2725300001957,INCROCIO VIA AURELIA - VIA FERRARIS - VADO LIGURE (SV),True
SPO.IT1130A_8_chemi_2004-01-01_00:00:00,20231026000000,20231026000000,NO2,17.7,Âµg/m3,traffic,urban,202.0,IT1130A,Settimo T. - Vivaldi,7.778200000105638,45.143199999955065,Via Milano 3 c/o Scuola Elementare Vivaldi,True
SPO.IT1128A_8_chemi_2008-05-20_00:00:00,20231026000000,20231026000000,NO2,20.85714,Âµg/m3,background,suburban,257.0,IT1128A,Borgaro T. - Caduti,7.658000000045912,45.15460000007571,Via Italia c/o Giardini dei caduti Borgaresi,True
SPO.IT1044A_8_chemi_2001-01-01_00:00:00,20231026000000,20231026000000,NO2,28.78947,Âµg/m3,traffic,urban,3.0,IT1044A,FLAMINIA,12.575559999638344,44.052220000175396,VIA FLAMINIA - Rimini (RN),True
SPO.IT1043A_8_chemi_2001-01-01_00:00:00,20231026000000,20231026000000,NO2,19.08333,Âµg/m3,background,urban,6.0,IT1043A,MARECCHIA,12.553332999834733,44.062499999788,PARCO XXV APRILE - Rimini (RN),True
SPO.IT1041A_8_chemi_1996-03-01_00:00:00,20231026000000,20231026000000,NO2,28.037,Âµg/m3,background,suburban,41.0,IT1041A,SA23 SCUOLA OSVALDO CONTI,14.777510000067302,40.695359999714086,VIA NICOLA BUONSERVIZI - Salerno (SA),True
SPO.IT1037A_8_chemi_1996-01-01_00:00:00,20231026000000,20231026000000,NO2,23.23286,Âµg/m3,background,urban,203.0,IT1037A,TRENTO PSC,11.12620000032231,46.062929999707684,PARCO SANTA CHIARA - Trento (TN),True
SPO.IT1034A_8_chemi_1995-11-01_00:00:00,20231026000000,20231026000000,NO2,28.79308,Âµg/m3,traffic,urban,221.0,IT1034A,MEDA,9.156939999779388,45.66082999996258,VIA GAGARIN ANG. INDIPENDENZA - Meda (MB),True
SPO.IT1029A_8_chemi_1995-09-02_00:00:00,20231026000000,20231026000000,NO2,17.61111,Âµg/m3,traffic,urban,42.0,IT1029A,DE AMICIS,11.72028000040794,44.35555999987653,Viale De Amicis - Imola (BO),True
SPO.IT1016A_8_chemi_1995-05-01_00:00:00,20231026000000,20231026000000,NO2,31.81583,Âµg/m3,traffic,urban,122.0,IT1016A,MILANO - SENATO,9.198055999928004,45.46972199987527,VIA SENATO ANG MARINA - Milano (MI),True
SPO.IT1011A_8_chemi_2012-12-19_00:00:00,20231026000000,20231026000000,NO2,16.81,Âµg/m3,traffic,urban,128.0,IT1011A,CARRARA,12.650829999889783,42.56000000021847,V.LE CAMPOFREGOSO/P.TE CARRARA - Terni (TR),True
SPO.IT0945A_8_chemi_1996-01-01_00:00:00,20231026000000,20231026000000,NO2,30.95,Âµg/m3,traffic,urban,62.0,IT0945A,PO-FERRUCCI,11.105279999849754,43.87472000013954,VIA FERRUCCI - Prato (PO),True
SPO.IT0940A_8_chemi_1994-01-25_00:00:00,20231026000000,20231026000000,NO2,21.57895,Âµg/m3,background,urban,50.0,IT0940A,S. LAZZARO,10.664722000073464,44.69083299978094,VIA AMENDOLA - Reggio nell'Emilia (RE),True
SPO.IT0936A_8_chemi_1994-04-01_00:00:00,20231026000000,20231026000000,NO2,12.44316,Âµg/m3,background,suburban,357.0,IT0936A,AV41 SCUOLA V CIRCOLO,14.785560000059343,40.91417000024111,"VIA OSCAR D'AGOSTINO,4 - Avellino (AV)",True
SPO.IT0934A_8_chemi_1994-01-02_00:00:00,20231026000000,20231026000000,NO2,14.39421,Âµg/m3,traffic,urban,159.0,IT0934A,Via Mustilli,14.789379999566792,41.13145999973164,via mustilli - Benevento (BN),True
SPO.IT0912A_8_chemi_1993-11-02_00:00:00,20231026000000,20231026000000,NO2,20.5349,Âµg/m3,background,urban,77.0,IT0912A,PAVIA - VIA FOLPERTI,9.164721999982826,45.19388899975283,VIA FOLPERTI - Pavia (PV),True
SPO.IT0870A_8_chemi_1994-01-01_00:00:00,20231026000000,20231026000000,NO2,0.0,Âµg/m3,background,urban,401.0,IT0870A,ANAGNI,13.14979499967719,41.746893000092754,PIAZZA R.BONGHI - Anagni (FR),True
SPO.IT0869A_8_chemi_1993-01-01_00:00:00,20231026000000,20231026000000,NO2,16.21053,Âµg/m3,background,urban,18.0,IT0869A,LT TASSO,12.913043000434373,41.46402699983643,VIA TASSO - Latina (LT),True
SPO.IT0867A_8_chemi_1992-04-09_00:00:00,20231026000000,20231026000000,NO2,9.380953,Âµg/m3,traffic,urban,392.0,IT0867A,RIETI,12.857793999956808,42.40468699984551,V. L. CANALI - Rieti (RI),True
SPO.IT0865A_8_chemi_1993-01-02_00:00:00,20231026000000,20231026000000,NO2,12.0,Âµg/m3,background,urban,81.0,IT0865A,APRILIA 2,12.653292999837468,41.59536300009349,VIA DEI LARICI - Aprilia (LT),True
SPO.IT0863A_8_chemi_1992-04-01_00:00:00,20231026000000,20231026000000,NO2,23.26316,Âµg/m3,traffic,urban,338.0,IT0863A,VITERBO,12.1091959996771,42.42212000029981,V.LE R. CAPOCCI - Viterbo (VT),True
SPO.IT0862A_8_chemi_1992-12-22_00:00:00,20231026000000,20231026000000,NO2,21.26316,Âµg/m3,background,urban,61.0,IT0862A,FI-BASSI,11.287499999738811,43.78666999969168,VIALE UGO BASSI - Firenze (FI),True
SPO.IT0861A_8_chemi_1992-12-22_00:00:00,20231026000000,20231026000000,NO2,40.05263,Âµg/m3,traffic,urban,49.0,IT0861A,FI-GRAMSCI,11.272219999912375,43.77305999992753,VIALE ANTONIO GRAMSCI - Firenze (FI),True
SPO.IT0794A_8_chemi_2018-01-01_00:00:00,20231026000000,20231026000000,NO2,2.727924,Âµg/m3,background,suburban,100.0,IT0794A,a2a - Pace del Mela,15.301496000042109,38.183005000105744,"Pace del Mela, Via Auditorium n.16",True
SPO.IT0792A_8_chemi_2016-01-01_00:00:00,20231026000000,20231026000000,NO2,3.4019,Âµg/m3,background,rural-nearcity,70.0,IT0792A,Santa Lucia del Mela,15.275031000256304,38.160495000202644,"Santa Lucia del Mela, Via Serri s.n.",True
SPO.IT0778A_8_chemi_1991-06-01_00:00:00,20231026000000,20231026000000,NO2,25.88997,Âµg/m3,traffic,urban,125.0,IT0778A,TREVIGLIO,9.591389000177818,45.51833299980503,P.ZZA INSURREZIONE - Treviglio (BG),True
SPO.IT0777A_8_chemi_1991-11-01_00:00:00,20231026000000,20231026000000,NO2,28.68891,Âµg/m3,traffic,urban,292.0,IT0777A,MERATE,9.406191940318056,45.69795955972709,VIA MADONNA DI LORETO-USSL 14 - Merate (LC),True
SPO.IT0776A_8_chemi_1991-11-01_00:00:00,20231026000000,20231026000000,NO2,19.82916,Âµg/m3,traffic,urban,214.0,IT0776A,LECCO VIA AMENDOLA,9.395832999652926,45.849443999734355,VIA AMENDOLA - SCUOLA DE AMICIS - Lecco (LC),True
SPO.IT0775A_8_chemi_1996-07-01_00:00:00,20231026000000,20231026000000,NO2,16.37899,Âµg/m3,background,suburban,228.0,IT0775A,COLICO,9.38500000004606,46.137222000176976,VIA LA MADONETA - Colico (LC),True
SPO.IT0771A_8_chemi_1991-11-01_00:00:00,20231026000000,20231026000000,NO2,32.21555,Âµg/m3,traffic,urban,201.0,IT0771A,COMO - VIALE CATTANEO,9.083610000317215,45.80443999973337,VIALE CATTANEO - Como (CO),True
SPO.IT0703A_8_chemi_1989-10-24_00:00:00,20231026000000,20231026000000,NO2,16.76524,Âµg/m3,background,suburban,380.0,IT0703A,BORGO VAL,11.453889999980522,46.05184000019839,VIA 4 NOVEMBRE - Borgo Valsugana (TN),True
SPO.IT2313A_8_chemi_2021-05-26_00:00:00,20231026000000,20231026000000,NO2,2.479199,Âµg/m3,background,rural-remote,20.0,IT2313A,Lampedusa,12.59792100023457,35.502802000082774,"Lampedusa, c/o Corpo Forestale str. di Ponente s.n.",True
SPO.IT2312A_8_chemi_2021-03-24_00:00:00,20231026000000,20231026000000,NO2,13.3824,Âµg/m3,background,urban,7.0,IT2312A,Gela - Tribunale,14.261254000417393,37.065104999861,"Gela, Via Generale Cascino n.359",True
SPO.IT2311A_8_chemi_2021-03-29_00:00:00,20231026000000,20231026000000,NO2,30.59818,Âµg/m3,traffic,urban,46.4,IT2311A,CT - Ospedale Garibaldi,15.075232999551256,37.5115939998774,"Catania, Viale Mario Rapisardi n.3",True
SPO.IT2310A_8_chemi_2021-04-01_00:00:00,20231026000000,20231026000000,NO2,14.08112,Âµg/m3,traffic,urban,585.5,IT2310A,Caltanissetta,14.0511100001772,37.489847999851044,"Caltanissetta, Piazza Mons. A. Garsia s.n.",True
SPO.IT2309A_8_chemi_2021-04-30_00:00:00,20231026000000,20231026000000,NO2,7.337761,Âµg/m3,background,suburban,34.6,IT2309A,Barcellona Pozzo di Gotto,15.231208999587441,38.16029000031074,"Barcellona Pozzo di Gotto, Via Ragusa n.20",True
SPO.IT2282A_8_chemi_2019-01-01_00:00:00,20231026000000,20231026000000,NO2,21.14286,Âµg/m3,background,urban,154.0,IT2282A,Novara - Arpa,8.620399999691559,45.43969999986147,Viale Roma 7,True
SPO.IT2281A_8_chemi_2017-02-23_00:00:00,20231026000000,20231026000000,NO2,5.167338,Âµg/m3,background,suburban,265.0,IT2281A,AG - ASP,13.593962999796968,37.30704700023966,"Agrigento, Via Papa Giovanni XXIII n.132",True
SPO.IT2280A_8_chemi_2017-05-24_00:00:00,20231026000000,20231026000000,NO2,22.15809,Âµg/m3,background,urban,140.0,IT2280A,p.le Rosmini,13.76608099965003,45.640486000252146,p.le Rosmini - Trieste (TS),True
SPO.IT2279A_8_chemi_2018-01-01_00:00:00,20231026000000,20231026000000,NO2,28.03238,Âµg/m3,traffic,suburban,570.0,IT2279A,AB3 Autostrada del Brennero A22,11.633309999638001,46.687559999763636,PRE DEI ZIGGLER - Bressanone (BZ),True
SPO.IT2277A_8_chemi_2017-09-01_00:00:00,20231026000000,20231026000000,NO2,1.787,Âµg/m3,background,suburban,150.0,IT2277A,Parco Virgiliano,14.179409999559365,40.798890000020734,Viale Virgilio - Napoli (NA),True
SPO.IT2276A_8_chemi_2016-09-28_00:00:00,20231026000000,20231026000000,NO2,4.865238,Âµg/m3,background,urban,792.0,IT2276A,Villa Comunale,15.096749999700387,41.15603999991972,Contrada Loreto - Ariano Irpino (AV),True
SPO.IT2275A_8_chemi_2020-01-01_00:00:00,20231026000000,20231026000000,NO2,14.78405,Âµg/m3,background,urban,0.0,IT2275A,ME - Villa Dante,15.546512000435529,38.17434099979559,"Messina, Villa Dante s.n.",True
SPO.IT2274A_8_chemi_2016-06-16_00:00:00,20231026000000,20231026000000,NO2,7.529687,Âµg/m3,background,suburban,0.0,IT2274A,Porto Empedocle,13.532537000169476,37.291893999926444,"Porto Empedocle, Via Spinola n.27",True
SPO.IT2249A_8_chemi_2017-09-29_00:00:00,20231026000000,20231026000000,NO2,0.75,Âµg/m3,background,rural,11.0,IT2249A,S. Agostino,11.742706000403178,42.15998299986707,via di Torrevaldaliga - Civitavecchia (RM),True
SPO.IT2248A_8_chemi_2019-03-19_00:00:00,20231026000000,20231026000000,NO2,13.33333,Âµg/m3,background,rural,90.0,IT2248A,Aurelia,11.793172000202196,42.13730899972818,via Aurelia Nord - Civitavecchia (RM),True
SPO.IT2247A_8_chemi_2017-02-07_00:00:00,20231026000000,20231026000000,NO2,19.55,Âµg/m3,background,urban,2.0,IT2247A,Villa Guglielmi,12.23704099967291,41.768233999903224,via di Villa Guglielmi - Fiumicino (RM),True
SPO.IT2246A_8_chemi_2016-01-01_00:00:00,20231026000000,20231026000000,NO2,7.15,Âµg/m3,industrial,suburban,3.0,IT2246A,Fiumicino Porto,12.22340399963651,41.774843999922716,porto di fiumicino - Fiumicino (RM),True
SPO.IT2242A_8_chemi_2016-03-24_00:00:00,20231026000000,20231026000000,NO2,13.11111,Âµg/m3,background,urban,121.0,IT2242A,FI-FIGLINE,11.46694000038609,43.62302999982199,VIA MORANDI - Figline e Incisa Valdarno (FI),True
SPO.IT2241A_8_chemi_2015-04-29_00:00:00,20231026000000,20231026000000,NO2,15.09091,Âµg/m3,traffic,urban,42.0,IT2241A,MS-MARINA-VECCHIA,10.132759999726456,44.031100000028495,Massa - Massa (MS),True
SPO.IT2240A_8_chemi_2015-04-16_00:00:00,20231026000000,20231026000000,NO2,11.66667,Âµg/m3,background,urban,13.0,IT2240A,LU-SAN-CONCORDIO,10.500480000135166,43.83280999999129,San Concordio - Lucca (LU),True
SPO.IT2239A_8_chemi_2009-01-09_00:00:00,20231026000000,20231026000000,NO2,14.42105,Âµg/m3,background,urban,130.0,IT2239A,LU-FORNOLI,10.559879999657976,44.0055500001345,Fornoli - Bagni di Lucca (LU),True
SPO.IT2213A_8_chemi_2015-01-01_00:00:00,20231026000000,20231026000000,NO2,20.713,Âµg/m3,background,suburban,191.0,IT2213A,Cava de' Tirreni Stadio,14.7024399998324,40.71099000000032,via G. Palumbo - Cava de' Tirreni (SA),True
SPO.IT2212A_8_chemi_2015-01-01_00:00:00,20231026000000,20231026000000,NO2,21.05263,Âµg/m3,background,urban,31.0,IT2212A,San Vitaliano Scuola Elementare Marconi,14.481329999915951,40.92431000008879,via Roma - San Vitaliano (NA),True
SPO.IT2211A_8_chemi_2015-01-01_00:00:00,20231026000000,20231026000000,NO2,30.47947,Âµg/m3,industrial,suburban,29.0,IT2211A,Acerra Zona Industriale,14.400999999874838,40.979710000224664,via dei Normanni 90 - Acerra (NA),True
SPO.IT2210A_8_chemi_2015-01-01_00:00:00,20231026000000,20231026000000,NO2,8.974,Âµg/m3,industrial,suburban,303.0,IT2210A,Solofra Zona Industriale,14.82458999982882,40.83555000005511,trav. via De Maio - Solofra (AV),True
SPO.IT2207A_8_chemi_2014-02-01_00:00:00,20231026000000,20231026000000,NO2,6.091866,Âµg/m3,background,urban,0.0,IT2207A,Gela - Capo Soprano,14.223843999973413,37.075692999892006,"Gela, Via delle Ande c/o I.T.I. Morselli",True
SPO.IT2206A_8_chemi_2014-02-01_00:00:00,20231026000000,20231026000000,NO2,4.822322,Âµg/m3,background,rural-nearcity,0.0,IT2206A,Gela - Biviere,14.344964999574811,37.02248600002592,"Gela, Strada Provinciale 51 c/o Riserva Biviere",True
SPO.IT2170A_8_chemi_2007-01-10_00:00:00,20231026000000,20231026000000,NO2,10.49071,Âµg/m3,background,rural,0.0,IT2170A,Malisana,13.262220000104485,45.81083000027298,via Marconi - Torviscosa (UD),True
SPO.IT2168A_8_chemi_1996-01-01_00:00:00,20231026000000,20231026000000,NO2,33.35,Âµg/m3,background,urban,243.0,IT2168A,Torino Lingotto,7.649099999758992,45.02489999974971,"Viale Augusto Monti, 21 zona Lingotto",True
SPO.IT2167A_8_chemi_2017-01-01_00:00:00,20231026000000,20231026000000,NO2,6.095238,Âµg/m3,background,suburban,6.0,IT2167A,Francavilla,14.279170000443873,42.421389999991035,SS 16 -loc Stadio - Francavilla al Mare (CH),True
SPO.IT2166A_8_chemi_2017-01-01_00:00:00,20231026000000,20231026000000,NO2,5.45,Âµg/m3,background,urban,50.0,IT2166A,Scuola Antonelli,14.137779999574853,42.34611000026036,Via Feltrino - Chieti (CH),True
SPO.IT2165A_8_chemi_2017-01-01_00:00:00,20231026000000,20231026000000,NO2,3.285714,Âµg/m3,background,suburban,201.0,IT2165A,Villa Caldari,14.355829999867044,42.2930599998116,SS 538 - Ortona (CH),True
SPO.IT2132A_8_chemi_2013-12-18_00:00:00,20231026000000,20231026000000,NO2,11.03667,Âµg/m3,background,rural,10.0,IT2132A,A2A Vermegliano,13.501119999650719,45.83643000004869,"via delle Mostegane, Vermigliano - Ronchi dei Legionari (GO)",True
SPO.IT2131A_8_chemi_2013-12-16_00:00:00,20231026000000,20231026000000,NO2,12.24524,Âµg/m3,background,rural,0.0,IT2131A,A2A Fossalon,13.48636000040628,45.731619999954674,via Eraclea - Grado (GO),True
SPO.IT2130A_8_chemi_2013-12-19_00:00:00,20231026000000,20231026000000,NO2,8.974762,Âµg/m3,industrial,rural,114.0,IT2130A,A2A Doberdo',13.543080000246432,45.842989999743224,via Vallone 26 - Doberdo del Lago (GO),True
SPO.IT2129A_8_chemi_2013-12-12_00:00:00,20231026000000,20231026000000,NO2,19.26191,Âµg/m3,industrial,urban,5.0,IT2129A,A2A Via Natisone,13.522050000169019,45.805180000150315,via Natisone 4 - Monfalcone (GO),True
SPO.IT2100A_8_chemi_2013-01-01_00:00:00,20231026000000,20231026000000,NO2,9.125,Âµg/m3,background,suburban,242.0,IT2100A,Magione,12.205833000289843,43.13305600002908,Via della Libertï¿½ - Magione (PG),True
SPO.IT2098A_8_chemi_2013-02-08_00:00:00,20231026000000,20231026000000,NO2,28.38336,Âµg/m3,background,suburban,181.0,IT2098A,MONZA PARCO,9.276109999619178,45.6022199999824,Via Mirabellino - Monza (MB),True
SPO.IT2097A_8_chemi_2012-01-01_00:00:00,20231026000000,20231026000000,NO2,1.842105,Âµg/m3,background,rural,811.0,IT2097A,CASTELLUCCIO,10.926111000262441,44.149999999920844,Via Montecavallo - Porretta Terme (BO),True
SPO.IT2096A_8_chemi_2012-03-09_00:00:00,20231026000000,20231026000000,NO2,26.6481,Âµg/m3,background,urban,260.0,IT2096A,BZ6 Bolzano,11.341970000066608,46.49916999979774,VIA AMBA ALAGI 5 - Bolzano (BZ),True
SPO.IT2090A_8_chemi_2015-01-01_00:00:00,20231026000000,20231026000000,NO2,4.978852,Âµg/m3,industrial,rural-nearcity,2.0,IT2090A,Schiavonea,16.546770000238816,39.6517600001593,Via Cristoforo Colombo - Corigliano Calabro (CS),True
SPO.IT2079A_8_chemi_2007-08-07_00:00:00,20231026000000,20231026000000,NO2,6.712412,Âµg/m3,background,urban,109.0,IT2079A,VIGEVANO - VIA VALLETTA,8.84583299997902,45.30444399981068,Via Valletta Fogliano 70 - Vigevano (PV),True
SPO.IT2052A_8_chemi_2011-03-31_00:00:00,20231026000000,20231026000000,NO2,10.36621,Âµg/m3,background,urban,135.0,IT2052A,CT - Parco Gioeni,15.081121999719405,37.52925700013433,"Catania, Via Antonino Ferrarotto, 42-50",True
SPO.IT2078A_8_chemi_2007-09-10_00:00:00,20231026000000,20231026000000,NO2,4.15298,Âµg/m3,industrial,rural-nearcity,82.0,IT2078A,Pietropaolo,16.669209999765148,38.870500000157136,loc Pietropaolo c/o vasca di accumulo del Consorzio di Bonifica - Simeri Crichi (CZ),True
SPO.IT2049A_8_chemi_2011-10-05_00:00:00,20231026000000,20231026000000,NO2,16.90941,Âµg/m3,background,urban,5.0,IT2049A,CENAS9,9.011388999819378,39.28638899993495,"VIA SICILIA, ASSEMINI - Assemini (CA)",True
SPO.IT2040A_8_chemi_2011-05-19_00:00:00,20231026000000,20231026000000,NO2,11.11825,Âµg/m3,background,urban,8.0,IT2040A,CENQU1,9.188055999999264,39.23277799992287,via Perdalonga - Quartu Sant'Elena (CA),True
SPO.IT2039A_8_chemi_2010-01-01_00:00:00,20231026000000,20231026000000,NO2,6.33,Âµg/m3,traffic,urban,2.8,IT2039A,CAMPO SPORTIVO MACERA - RAPALLO,9.22261000013517,44.351729999870315,VIA DELLA LIBERTA' - RAPALLO (GE),True
SPO.IT2038A_8_chemi_2010-01-01_00:00:00,20231026000000,20231026000000,NO2,7.42,Âµg/m3,traffic,urban,2.0,IT2038A,REGIONE CAVALLO - ALBENGA,8.205439999687757,44.05259000020966,TRA VIA MARTIRI FOCE E VIA DANTE - ALBENGA (SV),True
SPO.IT2036A_8_chemi_2011-01-01_00:00:00,20231026000000,20231026000000,NO2,7.852612,Âµg/m3,background,urban,598.0,IT2036A,RG - Villa Archimede,14.71450900042184,36.92633099992649,"Ragusa, Via Archimede c/o Villa Santa Domenica ",True
SPO.IT2033A_8_chemi_2011-01-01_00:00:00,20231026000000,20231026000000,NO2,8.46883,Âµg/m3,background,suburban,501.0,IT2033A,RG - Campo Atletica,14.734022000207599,36.91711899979306,"Ragusa, Largio Caduti sul Lavoro c/o Campo di Atletica Petrulli",True
SPO.IT2032A_8_chemi_2010-06-22_00:00:00,20231026000000,20231026000000,NO2,15.05263,Âµg/m3,background,urban,105.0,IT2032A,SI-POGGIBONSI,11.14193999955797,43.47278000012287,VIA DE AMICIS - Poggibonsi (SI),True
SPO.IT2004A_8_chemi_2010-02-26_00:00:00,20231026000000,20231026000000,NO2,16.75,Âµg/m3,traffic,urban,305.0,IT2004A,FONTIVEGGE1,12.374719999916111,43.10443999979163,Stazione Minimetrï¿½ - Perugia (PG),True
SPO.IT2001A_8_chemi_2011-01-01_00:00:00,20231026000000,20231026000000,NO2,19.71428,Âµg/m3,traffic,urban,283.0,IT2001A,Bra - Madonna Fiori,7.8430999996341715,44.70610000027631,"viale Madonna dei Fiori,55",True
SPO.IT1259A_8_chemi_1992-03-02_00:00:00,20231026000000,20231026000000,NO2,16.495,Âµg/m3,industrial,suburban,167.0,IT1259A,Osoppo,13.066666999952645,46.22083299988684,via Rivoli - Osoppo (UD),True
SPO.IT1251A_8_chemi_1999-01-01_00:00:00,20231026000000,20231026000000,NO2,31.46953,Âµg/m3,traffic,urban,170.0,IT1251A,BRESCIA - VIA TURATI,10.23193999975451,45.53860999996872,VIA TURATI - Brescia (BS),True
SPO.IT1247A_8_chemi_1999-01-01_00:00:00,20231026000000,20231026000000,NO2,18.57143,Âµg/m3,background,urban,405.0,IT1247A,Biella - Sturzo,8.05639999975809,45.5588000001239,"Via Don Sturzo, 20",True
SPO.IT1246A_8_chemi_1999-01-01_00:00:00,20231026000000,20231026000000,NO2,12.42857,Âµg/m3,background,urban,271.0,IT1246A,Cossato - Pace,8.187599999829258,45.568999999738516,"piazza della Pace, 2",True
SPO.IT1243A_8_chemi_2006-01-01_00:00:00,20231026000000,20231026000000,NO2,35.91006,Âµg/m3,traffic,suburban,192.0,IT1243A,CENS12,8.551390000227348,40.71028000005625,VIA BUDAPEST - Sassari (SS),True
SPO.IT1222A_8_chemi_2003-09-18_00:00:00,20231026000000,20231026000000,NO2,25.85,Âµg/m3,background,urban,3.0,IT1222A,SAN DONA' DI PIAVE,12.591667000193437,45.63027800023231,VIA TURATI,True
SPO.IT1215A_8_chemi_2001-01-02_00:00:00,20231026000000,20231026000000,NO2,34.27778,Âµg/m3,traffic,urban,7.0,IT1215A,RO - Largo Martiri,11.783329999558887,45.074720000183476,LARGO MARTIRI,True
SPO.IT1214A_8_chemi_1990-01-02_00:00:00,20231026000000,20231026000000,NO2,25.47368,Âµg/m3,background,urban,3.0,IT1214A,RO - Borsea,11.791110999937416,45.0397219999108,VIA GROTTO,True
SPO.IT1213A_8_chemi_2015-01-01_00:00:00,20231026000000,20231026000000,NO2,17.0,Âµg/m3,background,urban,4.0,IT1213A,ADRIA,12.06194000018848,45.04667000003816,Via Bettinazzi,True
SPO.IT1176A_8_chemi_1998-03-17_00:00:00,20231026000000,20231026000000,NO2,20.45,Âµg/m3,background,urban,28.0,IT1176A,L.GO PERESTRELLO,12.541618000145938,41.88601900023409,LARGO PERESTRELLO - Roma (RM),True
SPO.IT1174A_8_chemi_1998-03-01_00:00:00,20231026000000,20231026000000,NO2,15.77599,Âµg/m3,background,rural,100.0,IT1174A,MOTTA VISCONTI,8.989444000048074,45.282778000204274,VIA A. DE GASPERI - Motta Visconti (MI),True
SPO.IT1172A_8_chemi_1998-02-16_00:00:00,20231026000000,20231026000000,NO2,0.0,Âµg/m3,industrial,suburban,61.0,IT1172A,MONTEBELLO VICENTINO,11.387222000090171,45.4663890000354,VIALE TRENTO,True
SPO.IT1168A_8_chemi_1998-01-30_00:00:00,20231026000000,20231026000000,NO2,11.61875,Âµg/m3,background,suburban,62.0,IT1168A,S.Giovanni al Natisone,13.39333300013702,45.97333299973718,Via Madonna de Taviele - San Giovanni al Natisone (UD),True
SPO.IT1163A_8_chemi_2001-01-01_00:00:00,20231026000000,20231026000000,NO2,25.05263,Âµg/m3,traffic,urban,64.0,IT1163A,SAN LAZZARO,11.41639000002317,44.472220000231324,VIA POGGI - San Lazzaro di Savena (BO),True
SPO.IT1159A_8_chemi_1998-01-02_00:00:00,20231026000000,20231026000000,NO2,39.21053,Âµg/m3,traffic,urban,54.0,IT1159A,PORTA SAN FELICE,11.328329999657159,44.499720000077,PIAZZA DI PORTA SAN FELICE - Bologna (BO),True
SPO.IT1153A_8_chemi_1997-12-01_00:00:00,20231026000000,20231026000000,NO2,23.39761,Âµg/m3,traffic,urban,45.0,IT1153A,CREMONA - P.ZZA CADORNA,10.016667000127676,45.132777999937815,P.ZZA CADORNA - Cremona (CR),True
SPO.IT1082A_8_chemi_1996-08-01_00:00:00,20231026000000,20231026000000,NO2,20.94734,Âµg/m3,traffic,urban,42.0,IT1082A,PA - Belgio,13.331559000354982,38.1517000001211,"Palermo, Via Prava c/o Giardino Pubblico s.n.",True
SPO.IT1079A_8_chemi_1996-08-01_00:00:00,20231026000000,20231026000000,NO2,21.95984,Âµg/m3,traffic,urban,17.0,IT1079A,PA - Castelnuovo,13.354214999605675,38.124381999671485,"Palermo, Piazza Castelnuovo n.37",True
SPO.IT1078A_8_chemi_1996-08-01_00:00:00,20231026000000,20231026000000,NO2,25.00838,Âµg/m3,traffic,urban,34.0,IT1078A,PA - Indipendenza,13.350251999983092,38.111034000006256,"Palermo, Piazza Indipendenza s.n.",True
SPO.IT1076A_8_chemi_1996-08-01_00:00:00,20231026000000,20231026000000,NO2,1.739787,Âµg/m3,background,suburban,141.0,IT1076A,PA - Boccadifalco,13.302198000078134,38.12053899983797,"Palermo, Via Luigi Sarullo c/o ASP 6 âCasa del Soleâ",True
SPO.IT1071A_8_chemi_1997-01-01_00:00:00,20231026000000,20231026000000,NO2,17.0625,Âµg/m3,background,suburban,16.0,IT1071A,PI-SANTA-CROCE-COOP,10.771666999688204,43.71305600020014,VIA DEL CONCILIO - Santa Croce sull'Arno (PI),True
SPO.IT1065A_8_chemi_1996-06-02_00:00:00,20231026000000,20231026000000,NO2,17.38095,Âµg/m3,background,urban,114.0,IT1065A,BASSANO DEL GRAPPA,11.736667000447202,45.76083300009833,VIA MUHLACKER,True
SPO.IT1048A_8_chemi_1996-04-01_00:00:00,20231026000000,20231026000000,NO2,24.42105,Âµg/m3,background,urban,29.0,IT1048A,PARCO RESISTENZA,12.048888999958,44.21916699973404,"VIALE SPAZZOLI,15 - ForlÃ¬ (FC)",True
SPO.IT0966A_8_chemi_1994-07-02_00:00:00,20231026000000,20231026000000,NO2,19.145,Âµg/m3,background,urban,100.0,IT0966A,V.Cairoli,13.240555999642263,46.066111000151075,VIA CAIROLI - Udine (UD),True
SPO.IT0963A_8_chemi_1994-05-16_00:00:00,20231026000000,20231026000000,NO2,29.25,Âµg/m3,background,urban,1.0,IT0963A,VE - Parco Bissuola,12.262221999693883,45.499166999763766,VIA BISSUOLA,True
SPO.IT0957A_8_chemi_1997-01-01_00:00:00,20231026000000,20231026000000,NO2,17.5,Âµg/m3,background,suburban,56.0,IT0957A,TENUTA DEL CAVALIERE,12.658479999848744,41.92947400014097,VIA TENUTA DEL CAVALIERE 102 - Roma (RM),True
SPO.IT0956A_8_chemi_1998-01-13_00:00:00,20231026000000,20231026000000,NO2,23.47619,Âµg/m3,background,urban,48.0,IT0956A,CINECITTA,12.56865200001923,41.857716000169184,LGO. BELOLLI - Roma (RM),True
SPO.IT0953A_8_chemi_1998-01-01_00:00:00,20231026000000,20231026000000,NO2,10.0,Âµg/m3,background,urban,50.0,IT0953A,VILLA ADA,12.506946999834165,41.9328920002536,VIA SALARIA - Roma (RM),True
SPO.IT0952A_8_chemi_1997-01-03_00:00:00,20231026000000,20231026000000,NO2,9.35,Âµg/m3,background,rural,66.0,IT0952A,CASTEL DI GUIDO,12.26632699960669,41.88945099994252,VIA AURELIA KM 20 CASTEL DI GUIDO - Roma (RM),True
SPO.IT0950A_8_chemi_1995-01-01_00:00:00,20231026000000,20231026000000,NO2,6.5,Âµg/m3,background,urban,260.0,IT0950A,AR-ACROPOLI,11.888890000024773,43.46111000012047,VIA BENEDETTO ANGELICO - Arezzo (AR),True
SPO.IT0889A_8_chemi_1993-01-01_00:00:00,20231026000000,20231026000000,NO2,23.4,Âµg/m3,background,suburban,220.0,IT0889A,COLLEFERRO EUROPA,13.009667999554921,41.725004999784296,V.LE EUROPA - Colleferro (RM),True
SPO.IT0888A_8_chemi_1993-01-08_00:00:00,20231026000000,20231026000000,NO2,30.1,Âµg/m3,industrial,suburban,217.0,IT0888A,COLLEFERRO OBERDAN,13.004056000294522,41.7304469997697,P.ZZA OBERDAN - Colleferro (RM),True
SPO.IT0887A_8_chemi_1993-01-01_00:00:00,20231026000000,20231026000000,NO2,16.6,Âµg/m3,traffic,suburban,89.0,IT0887A,GUIDONIA,12.726623000197955,41.9956260001373,P.ZZA STAZIONE FERROVIARIA - Guidonia Montecelio (RM),True
SPO.IT0885A_8_chemi_1993-01-01_00:00:00,20231026000000,20231026000000,NO2,12.55556,Âµg/m3,background,urban,26.0,IT0885A,CIVITAVECCHIA,11.802485000042676,42.09159299996476,VIA PALMIRO TOGLIATTI - Civitavecchia (RM),True
SPO.IT0884A_8_chemi_1993-05-25_00:00:00,20231026000000,20231026000000,NO2,4.55,Âµg/m3,background,rural,532.0,IT0884A,ALLUMIERE,11.908954000354667,42.15785600001355,VIA DEL FAGGETO - Allumiere (RM),True
SPO.IT0883A_8_chemi_1993-04-26_00:00:00,20231026000000,20231026000000,NO2,6.473684,Âµg/m3,background,rural,195.0,IT0883A,FI-SETTIGNANO,11.323889000183687,43.78916699969273,VIA DESIDERIO DA SETTIGNANO - Firenze (FI),True
SPO.IT0872A_8_chemi_1992-07-01_00:00:00,20231026000000,20231026000000,NO2,26.375,Âµg/m3,traffic,urban,134.0,IT0872A,CECCANO,13.338713000021393,41.57159399999233,P.ZZA AFFARI - Ceccano (FR),True
SPO.IT0871A_8_chemi_1992-07-01_00:00:00,20231026000000,20231026000000,NO2,14.55,Âµg/m3,traffic,urban,236.0,IT0871A,FERENTINO,13.265567999608832,41.68789800009343,VIA CASILINA LOC. S.AGATA - Ferentino (FR),True
SPO.IT0839A_8_chemi_1992-11-01_00:00:00,20231026000000,20231026000000,NO2,21.73605,Âµg/m3,background,suburban,79.0,IT0839A,CREMA,9.70499999956234,45.36722000007451,VIA XI FEBBRAIO - Crema (CR),True
SPO.IT0837A_8_chemi_1992-01-01_00:00:00,20231026000000,20231026000000,NO2,25.90226,Âµg/m3,background,urban,190.0,IT0837A,FILAGO,9.556389999802985,45.63305999972261,VIA DON MILANI - Filago (BG),True
SPO.IT0832A_8_chemi_1995-01-01_00:00:00,20231026000000,20231026000000,NO2,14.57895,Âµg/m3,traffic,urban,256.0,IT0832A,AR-REPUBBLICA,11.876669999822594,43.46250000031228,VIALE MICHELANGELO - Arezzo (AR),True
SPO.IT0828A_8_chemi_1993-01-01_00:00:00,20231026000000,20231026000000,NO2,31.63158,Âµg/m3,traffic,urban,37.0,IT0828A,L.GO MAGNA GRECIA,12.508950000372625,41.883074999854905,LARGO MAGNA GRECIA - Roma (RM),True
SPO.IT0825A_8_chemi_1997-10-01_00:00:00,20231026000000,20231026000000,NO2,35.47619,Âµg/m3,traffic,urban,35.0,IT0825A,C.SO FRANCIA,12.46956300022777,41.94744799997372,CORSO FRANCIA - Roma (RM),True
SPO.IT0817A_8_chemi_1992-01-17_00:00:00,20231026000000,20231026000000,NO2,14.93132,Âµg/m3,traffic,urban,305.0,IT0817A,Niscemi,14.395551999747655,37.145942999887815,"Niscemi, Via Papa Leone XIII n. 16",True
SPO.IT0815A_8_chemi_2006-12-31_00:00:00,20231026000000,20231026000000,NO2,9.886558,Âµg/m3,background,suburban,13.0,IT0815A,Gela - Enimed,14.28421799963966,37.06221700007675,"Gela, Strada Provinciale 82 c/o Parcheggio Eni",True
SPO.IT0813A_8_chemi_1992-01-17_00:00:00,20231026000000,20231026000000,NO2,19.79255,Âµg/m3,traffic,urban,15.0,IT0813A,Gela - Via Venezia,14.25361799980382,37.070349000205525,"Gela, Via Venezia n.148",True
SPO.IT0804A_8_chemi_2002-01-01_00:00:00,20231026000000,20231026000000,NO2,23.73684,Âµg/m3,background,urban,60.0,IT0804A,CITTADELLA,10.331669999603477,44.793609999872615,PARCO CITTADELLA - Parma (PR),True
SPO.IT0732A_8_chemi_1991-12-01_00:00:00,20231026000000,20231026000000,NO2,16.79894,Âµg/m3,background,urban,382.0,IT0732A,VARESE - VIA VIDOLETTI,8.804170000382545,45.83611000026141,VIA MANIN - Varese (VA),True
SPO.IT0721A_8_chemi_2001-01-01_00:00:00,20231026000000,20231026000000,NO2,30.47368,Âµg/m3,traffic,urban,39.0,IT0721A,GIARDINI,10.904729999657436,44.636050000060166,V. GIARDINI N.543 C/O SCUOLA GUIDOTTI - Modena (MO),True
SPO.IT0709A_8_chemi_1990-01-01_00:00:00,20231026000000,20231026000000,NO2,23.71716,Âµg/m3,background,urban,18.0,IT0709A,MANTOVA - VIA ARIOSTO,10.80333299972899,45.144443999995595,VIA ARIOSTO - Mantova (MN),True
SPO.IT0707A_8_chemi_1989-06-01_00:00:00,20231026000000,20231026000000,NO2,32.63726,Âµg/m3,background,urban,249.0,IT0707A,BERGAMO - VIA MEUCCI,9.643888999579119,45.69027800004526,VIA MEUCCI - Bergamo (BG),True
SPO.IT0706A_8_chemi_1989-11-01_00:00:00,20231026000000,20231026000000,NO2,30.1619,Âµg/m3,background,urban,123.0,IT0706A,LIMITO,9.327500000231232,45.48277800011663,VIA PALERMO ANGOLO VIA EMILIA - Pioltello (MI),True
SPO.IT0705A_8_chemi_1989-11-01_00:00:00,20231026000000,20231026000000,NO2,29.86043,Âµg/m3,traffic,urban,122.0,IT0705A,MILANO - VERZIERE,9.195833000179832,45.4627779999288,VIA BECCARIA 19 - Milano (MI),True
SPO.IT0544A_8_chemi_1995-08-03_00:00:00,20231026000000,20231026000000,NO2,16.84211,Âµg/m3,background,suburban,210.0,IT0544A,LUGAGNANO,9.830280000401535,44.823890000314236,"V. FERMI, 9 - Lugagnano Val d'Arda (PC)",True
SPO.IT0508A_8_chemi_1990-09-27_00:00:00,20231026000000,20231026000000,NO2,14.19429,Âµg/m3,background,urban,830.0,IT0508A,BR1 Brunico,11.944029999824078,46.79734999983805,VIA GOETHE - Brunico (BZ),True
SPO.IT0507A_8_chemi_1990-10-24_00:00:00,20231026000000,20231026000000,NO2,22.47714,Âµg/m3,background,urban,564.0,IT0507A,BX1 Bressanone,11.65408000032273,46.71492000018391,VIALE RATISBONA - Bressanone (BZ),True
SPO.IT0505A_8_chemi_1990-02-01_00:00:00,20231026000000,20231026000000,NO2,2.456191,Âµg/m3,background,rural-nearcity,1770.0,IT0505A,RE1 Renon,11.433170000422821,46.58966999969273,"Via TANN, LOC. GRUENWALD - Renon (BZ)",True
SPO.IT0502A_8_chemi_2005-12-08_00:00:00,20231026000000,20231026000000,NO2,28.63143,Âµg/m3,traffic,urban,247.0,IT0502A,BZ4 Bolzano,11.341830000324524,46.48230999992348,VIA CLAUDIA AUGUSTA - Bolzano (BZ),True
SPO.IT0480A_8_chemi_1974-11-01_00:00:00,20231026000000,20231026000000,NO2,38.06752,Âµg/m3,traffic,urban,137.0,IT0480A,SESTO S.GIOVANNI,9.236388999563479,45.53388899993441,VIA FANTI D.ITALIA - Sesto San Giovanni (MI),True
SPO.IT0477A_8_chemi_1973-11-01_00:00:00,20231026000000,20231026000000,NO2,30.77563,Âµg/m3,traffic,urban,122.0,IT0477A,MILANO - V.LE MARCHE,9.191389000333311,45.4955559998796,VIALE MARCHE 71 - Milano (MI),True
SPO.IT1902A_8_chemi_2008-05-01_00:00:00,20231026000000,20231026000000,NO2,4.865,Âµg/m3,background,rural,209.0,IT1902A,BRUFA,12.46806000017982,43.06694000003754,LOCALITA' BRUFA - Torgiano (PG),True
SPO.IT1901A_8_chemi_2008-01-01_00:00:00,20231026000000,20231026000000,NO2,11.45,Âµg/m3,traffic,urban,498.0,IT1901A,PIAZZA 40 MARTIRI,12.576389999841737,43.35277999978922,PIAZZA 40 MARTIRI - Gubbio (PG),True
SPO.IT1900A_8_chemi_2008-01-01_00:00:00,20231026000000,20231026000000,NO2,17.455,Âµg/m3,traffic,urban,234.0,IT1900A,PORTA ROMANA,12.707779999883703,42.95167000023373,PORTA ROMANA - Foligno (PG),True
SPO.IT1899A_8_chemi_2008-09-25_00:00:00,20231026000000,20231026000000,NO2,15.42256,Âµg/m3,background,urban,160.0,IT1899A,Misterbianco,15.010788000307391,37.51571400020742,"Misterbianco, Contrada Milicia n. 5",True
SPO.IT1898A_8_chemi_2008-09-16_00:00:00,20231026000000,20231026000000,NO2,23.58482,Âµg/m3,background,urban,40.0,IT1898A,Trapani,12.546893999845675,38.01236500030658,"Trapani, Viale Marche n.4 c/o Villa Comunale",True
SPO.IT1897A_8_chemi_2008-01-01_00:00:00,20231026000000,20231026000000,NO2,6.691333,Âµg/m3,industrial,urban,319.0,IT1897A,Lavello,15.78762600040742,41.04600299975454,Via Lombardia - Lavello (PZ),True
SPO.IT1895A_8_chemi_2007-01-10_00:00:00,20231026000000,20231026000000,NO2,9.517312,Âµg/m3,industrial,rural,55.0,IT1895A,Pisticci,16.548430999572197,40.42037699999685,Pisticci Scalo - Pisticci (MT),True
SPO.IT1890A_8_chemi_2008-04-01_00:00:00,20231026000000,20231026000000,NO2,2.818087,Âµg/m3,background,urban,925.0,IT1890A,Enna,14.281462999613929,37.564124999674135,"Enna, Via Valverde n.104",True
SPO.IT1871A_8_chemi_2008-01-08_00:00:00,20231026000000,20231026000000,NO2,21.2,Âµg/m3,industrial,suburban,12.0,IT1871A,ESTE,11.66583299964636,45.22666700010374,Via Stazie Bragadine,True
SPO.IT1870A_8_chemi_2008-01-24_00:00:00,20231026000000,20231026000000,NO2,20.36842,Âµg/m3,background,rural,18.0,IT1870A,PARCO COLLI EUGANEI,11.643056000021842,45.28999999981312,Via Roma,True
SPO.IT1869A_8_chemi_2004-06-07_00:00:00,20231026000000,20231026000000,NO2,21.65306,Âµg/m3,traffic,urban,19.0,IT1869A,MANTOVA - piazza GRAMSCI,10.781940000326733,45.16443999986002,P.zzale Gramsci - Mantova (MN),True
SPO.IT1868A_8_chemi_2004-12-30_00:00:00,20231026000000,20231026000000,NO2,21.84999,Âµg/m3,background,urban,22.0,IT1868A,MANTOVA SANT'AGNESE,10.795556000446737,45.16055599972534,Vicolo Sant'Agnese - Mantova (MN),True
SPO.IT1865A_8_chemi_2006-11-29_00:00:00,20231026000000,20231026000000,NO2,15.35603,Âµg/m3,background,rural,16.0,IT1865A,SCHIVENOGLIA,11.070830000369234,44.99694000011139,lott.ne artigianale - Schivenoglia (MN),True
SPO.IT1862A_8_chemi_2007-12-01_00:00:00,20231026000000,20231026000000,NO2,26.9,Âµg/m3,traffic,urban,1.0,IT1862A,VE - Via Tagliamento,12.218329999603139,45.490279999779204,VIA TAGLIAMENTO,True
SPO.IT1829A_8_chemi_2016-01-01_00:00:00,20231026000000,20231026000000,NO2,31.7525,Âµg/m3,traffic,urban,10.0,IT1829A,ME - Boccetta,15.55293499963275,38.19825599965097,"Messina, Viale Boccetta n.774",True
SPO.IT1827A_8_chemi_2006-07-01_00:00:00,20231026000000,20231026000000,NO2,10.95333,Âµg/m3,background,urban,100.0,IT1827A,Ancona Cittadella,13.508609999776109,43.61167000005721,Parco Cittadella - Ancona (AN),True
SPO.IT1826A_8_chemi_2007-07-16_00:00:00,20231026000000,20231026000000,NO2,15.22038,Âµg/m3,background,urban,267.0,IT1826A,LECCO VIA SORA,9.395832999652926,45.849443999734355,VIA SORA - Lecco (LC),True
SPO.IT1819A_8_chemi_2007-06-01_00:00:00,20231026000000,20231026000000,NO2,12.47368,Âµg/m3,background,urban,98.0,IT1819A,MS-COLOMBAROTTO,10.097222000299684,44.07833299970809,PIAZZA 2 GIUGNO - Carrara (MS),True
SPO.IT1812A_8_chemi_2007-03-16_00:00:00,20231026000000,20231026000000,NO2,4.743298,Âµg/m3,background,rural,1192.0,IT1812A,MOGGIO,9.496944000249421,45.91305600014936,Localitï¿½ Penscei - Moggio (LC),True
SPO.IT1801A_8_chemi_2006-02-01_00:00:00,20231026000000,20231026000000,NO2,15.43505,Âµg/m3,traffic,urban,31.0,IT1801A,TERMOLI2,14.993333000413362,41.998055999828786,VIA MARTIRI DELLA RESISTENZA - Termoli (CB),True
SPO.IT1743A_8_chemi_2005-10-20_00:00:00,20231026000000,20231026000000,NO2,9.340845,Âµg/m3,background,urban,162.0,IT1743A,MONZA - VIA  MACHIAVELLI,9.274440000064963,45.58111000029777,via MACHIAVELLI - Monza (MB),True
SPO.IT1742A_8_chemi_2006-03-06_00:00:00,20231026000000,20231026000000,NO2,13.70056,Âµg/m3,industrial,rural,604.0,IT1742A,Viggiano,15.90458000017173,40.314068000051805,C.da Guardemauro - Viggiano (PZ),True
SPO.IT1741A_8_chemi_2006-04-15_00:00:00,20231026000000,20231026000000,NO2,12.74069,Âµg/m3,industrial,rural,63.0,IT1741A,Ferrandina,16.49620900000524,40.48584599992823,Zona Industriale - Ferrandina (MT),True
SPO.IT1740A_8_chemi_2006-03-08_00:00:00,20231026000000,20231026000000,NO2,7.466118,Âµg/m3,industrial,rural,187.0,IT1740A,San Nicola di Melfi,15.722746000072053,41.067054999804995,Zona Industriale - Melfi (PZ),True
SPO.IT1739A_8_chemi_2006-04-08_00:00:00,20231026000000,20231026000000,NO2,24.37899,Âµg/m3,background,urban,45.0,IT1739A,CREMONA VIA FATEBENEFRATELLI,10.045833000410855,45.14222200005792,via Fatebenefratelli  - Cremona (CR),True
SPO.IT1674A_8_chemi_2005-03-16_00:00:00,20231026000000,20231026000000,NO2,9.642353,Âµg/m3,industrial,suburban,720.0,IT1674A,Potenza - S.L.Branca,15.872893000214548,40.64389299992138,Contrada San Luca Branca - Potenza (PZ),True
SPO.IT1672A_8_chemi_2004-10-07_00:00:00,20231026000000,20231026000000,NO2,0.8526316,Âµg/m3,background,rural,1120.0,IT1672A,FEBBIO,10.430278000069315,44.29972199983483,VIA PROVINCIALE - Villa Minozzo (RE),True
SPO.IT1670A_8_chemi_2005-01-19_00:00:00,20231026000000,20231026000000,NO2,23.10526,Âµg/m3,background,urban,37.0,IT1670A,FRANCHINI ANGELONI,12.239167000235021,44.139166999921834,PIAZZA FRANCHINI ANGELONI - Cesena (FC),True
SPO.IT1662A_8_chemi_2004-01-01_00:00:00,20231026000000,20231026000000,NO2,1.64,Âµg/m3,background,suburban,20.0,IT1662A,CHIAPPA - LA SPEZIA,9.798709999721902,44.12364999976473,VIA BENDICENTI PRESSO SCUOLA ELEMENTARE - LA SPEZIA (SP),True
SPO.IT1661A_8_chemi_2004-01-01_00:00:00,20231026000000,20231026000000,NO2,6.56,Âµg/m3,traffic,suburban,28.0,IT1661A,SANTO STEFANO MAGRA,9.918709999765085,44.15466000020794,USCITA RACCORDO AUTOSTRADALE - SANTO STEFANO DI MAGRA (SP),True
SPO.IT1654A_8_chemi_1997-11-04_00:00:00,20231026000000,20231026000000,NO2,31.42105,Âµg/m3,background,urban,54.0,IT1654A,PO-ROMA,11.091939999914274,43.87278000027859,VIA ROMA - Prato (PO),True
SPO.IT1650A_8_chemi_2003-12-09_00:00:00,20231026000000,20231026000000,NO2,27.2909,Âµg/m3,background,urban,212.0,IT1650A,SARONNO - SANTUARIO,9.024167000238384,45.62694399989338,VIA SANTUARIO - Saronno (VA),True
SPO.IT1571A_8_chemi_2000-12-01_00:00:00,20231026000000,20231026000000,NO2,19.78947,Âµg/m3,background,urban,80.0,IT1571A,PT-SIGNORELLI,10.905280000376658,43.940830000165136,VIA SIGNORELLI - Pistoia (PT),True
SPO.IT1566A_8_chemi_2002-07-19_23:00:00,20231026000000,20231026000000,NO2,15.08794,Âµg/m3,traffic,urban,40.0,IT1566A,SR - Teracati,15.27858100032533,37.07583099972798,"Siracusa, Via Ettore Romagnoli c/o Campo Sportivo Di Natale",True
SPO.IT1560A_8_chemi_2002-01-15_00:00:00,20231026000000,20231026000000,NO2,20.47368,Âµg/m3,traffic,urban,9.0,IT1560A,LI-CARDUCCI,10.329719999666779,43.55471999989844,VIALE CARDUCCI - Livorno (LI),True
SPO.IT1557A_8_chemi_2002-01-01_00:00:00,20231026000000,20231026000000,NO2,6.894737,Âµg/m3,background,urban,13.0,IT1557A,LI-CAPPIELLO,10.321667000200005,43.51999999968825,PIAZZA CAPPIELLO - Livorno (LI),True
SPO.IT1553A_8_chemi_2000-12-01_00:00:00,20231026000000,20231026000000,NO2,16.89474,Âµg/m3,background,rural,48.0,IT1553A,PT-MONTALE,11.006940000070836,43.91610999987526,VIA PACINOTTI - Montale (PT),True
SPO.IT1552A_8_chemi_2002-03-28_00:00:00,20231026000000,20231026000000,NO2,43.4875,Âµg/m3,traffic,urban,55.0,IT1552A,PA - Di Blasi,13.329305999571268,38.121680999664335,"Palermo, Viale delle Regione Siciliana n. 2033",True
SPO.IT1551A_8_chemi_1993-04-01_00:00:00,20231026000000,20231026000000,NO2,17.72222,Âµg/m3,background,urban,45.0,IT1551A,FI-SCANDICCI,11.192780000349115,43.75694000022683,VIA BUOZZI - Scandicci (FI),True
SPO.IT1549A_8_chemi_2016-01-01_00:00:00,20231026000000,20231026000000,NO2,0.0,Âµg/m3,background,suburban,120.0,IT1549A,CAMPORA - CAMPOMORONE,8.873830000125091,44.51858999974861,VIA ALLA CAFFARELLA - CAMPOMORONE (GE),True
SPO.IT1504A_8_chemi_1994-01-02_00:00:00,20231026000000,20231026000000,NO2,26.10286,Âµg/m3,traffic,urban,35.0,IT1504A,SA22 Ospedale via Vernieri,14.769720000366254,40.6838899996754,Via Pio XI - Salerno (SA),True
SPO.IT1497A_8_chemi_1993-06-02_00:00:00,20231026000000,20231026000000,NO2,13.784,Âµg/m3,background,urban,145.0,IT1497A,NA01 OSSERVATORIO ASTRONOMICO,14.254509999931493,40.863690000280236,SALITA MOIARIELLO 16 - Napoli (NA),True
SPO.IT1496A_8_chemi_1994-01-02_00:00:00,20231026000000,20231026000000,NO2,51.70667,Âµg/m3,traffic,urban,173.0,IT1496A,NA02 OSPEDALE SANTOBONO,14.231109999792816,40.84935999972537,VIA MARIO FIORE 6 - Napoli (NA),True
SPO.IT1495A_8_chemi_1996-03-02_00:00:00,20231026000000,20231026000000,NO2,40.39,Âµg/m3,traffic,urban,143.0,IT1495A,NA08 OSPEDALE NUOVO PELLEGRINI,14.275469999688706,40.872340000167,VIA FILIPPO MARIA BRIGANTI - Napoli (NA),True
SPO.IT1493A_8_chemi_1996-03-02_00:00:00,20231026000000,20231026000000,NO2,37.277,Âµg/m3,traffic,suburban,33.0,IT1493A,NA09 I.T.I.S. ARGINE,14.341079999770034,40.86427000012032,"VIA ARGINE, 902 - Napoli (NA)",True
SPO.IT1491A_8_chemi_1993-08-02_00:00:00,20231026000000,20231026000000,NO2,55.044,Âµg/m3,traffic,urban,13.0,IT1491A,NA07 ENTE FERROVIE,14.271670000272739,40.853609999756266,"CORSO NOVARA,10 - Napoli (NA)",True
SPO.IT1488A_8_chemi_2015-08-19_19:00:00,20231026000000,20231026000000,NO2,15.52789,Âµg/m3,traffic,suburban,71.0,IT1488A,CE54 SCUOLA SETTEMBRINI,14.37809000018093,41.04591999994376,"Vi Brecciame, 46 - Maddaloni (CE)",True
SPO.IT1423A_8_chemi_1998-01-02_00:00:00,20231026000000,20231026000000,NO2,6.55,Âµg/m3,background,urban,4.0,IT1423A,PE - TEATRO D'ANNUNZIO,14.234720000136297,42.456390000146165,LUNGOMARE C. COLOMBO 120 - Pescara (PE),True
SPO.IT1409A_8_chemi_1997-06-14_00:00:00,20231026000000,20231026000000,NO2,15.2,Âµg/m3,traffic,urban,5.0,IT1409A,PI-BORGHETTO,10.410560000244143,43.71388999995921,PIAZZA DEL ROSSO - Pisa (PI),True
SPO.IT1392A_8_chemi_2007-01-01_00:00:00,20231026000000,20231026000000,NO2,17.18691,Âµg/m3,background,rural,14.0,IT1392A,BORGOFRANCO,11.204439999786324,45.0513900001322,localit? Bonizzo - Borgofranco sul Po (MN),True
SPO.IT1388A_8_chemi_1991-07-02_00:00:00,20231026000000,20231026000000,NO2,24.56613,Âµg/m3,background,suburban,113.0,IT1388A,PONTI SUL MINCIO,10.691940000069765,45.41083000029478,piazza Paolini 21 - Ponti sul Mincio (MN),True
SPO.IT1309A_8_chemi_2006-01-01_00:00:00,20231026000000,20231026000000,NO2,5.367853,Âµg/m3,traffic,urban,15.0,IT1309A,CENS10,9.501666999755196,40.92833300013585,VIA ROMA - Olbia (OT),True
SPO.IT1294A_8_chemi_1990-01-01_00:00:00,20231026000000,20231026000000,NO2,16.61906,Âµg/m3,background,urban,146.0,IT1294A,TURBIGO,8.736669999740661,45.52583000015019,"Vicolo dello Sport, 17 - Turbigo (MI)",True
SPO.IT1290A_8_chemi_1994-02-02_00:00:00,20231026000000,20231026000000,NO2,24.45253,Âµg/m3,traffic,urban,97.0,IT1290A,S. GIULIANO,9.282779999586918,45.3952800000411,via Milano - San Giuliano Milanese (MI),True
SPO.IT1288A_8_chemi_1993-10-01_00:00:00,20231026000000,20231026000000,NO2,16.36752,Âµg/m3,background,rural,64.0,IT1288A,ABBADIA CERRETO,9.586110000105032,45.3086100002954,Via Fanfulla - Abbadia Cerreto (LO),True
SPO.IT1287A_8_chemi_1994-10-01_00:00:00,20231026000000,20231026000000,NO2,19.57111,Âµg/m3,traffic,urban,58.0,IT1287A,CODOGNO,9.698332999967649,45.1586110001391,Via Trento - Codogno (LO),True
SPO.IT1286A_8_chemi_1993-02-01_00:00:00,20231026000000,20231026000000,NO2,18.85092,Âµg/m3,traffic,urban,80.0,IT1286A,LODI Vignati,9.485555999900459,45.30527800013927,via vignati - Lodi (LO),True
SPO.IT1277A_8_chemi_2012-01-01_00:00:00,20231026000000,20231026000000,NO2,14.39903,Âµg/m3,background,urban,39.0,IT1277A,CENSN1,9.69443999976695,40.57500000010204,VIA NAPOLI - Siniscola (NU),True
SPO.IT1264A_8_chemi_1998-01-02_00:00:00,20231026000000,20231026000000,NO2,23.5,Âµg/m3,traffic,urban,9.0,IT1264A,PE - VIA FIRENZE,14.213059999872035,42.46638999967155,VIA FIRENZE c/o LICEO GINNASIO - Pescara (PE),True
SPO.IT1187A_8_chemi_2004-02-13_00:00:00,20231026000000,20231026000000,NO2,5.0,Âµg/m3,background,urban,10.0,IT1187A,LU-CAPANNORI,10.573889000138369,43.840832999878444,VIA PIAGGIA - Capannori (LU),True
SPO.IT1186A_8_chemi_1998-08-01_00:00:00,20231026000000,20231026000000,NO2,7.368421,Âµg/m3,background,urban,3.0,IT1186A,LU-VIAREGGIO,10.245000000205826,43.88388900004837,VIA MARONCELLI - Viareggio (LU),True
SPO.IT1184A_8_chemi_1998-07-09_00:00:00,20231026000000,20231026000000,NO2,26.0,Âµg/m3,background,suburban,15.0,IT1184A,LATINA SCALO,12.94659999996231,41.531405000213596,VIA DELLE INDUSTRIE - Latina (LT),True
SPO.IT1183A_8_chemi_1998-07-03_00:00:00,20231026000000,20231026000000,NO2,27.55,Âµg/m3,traffic,urban,39.0,IT1183A,CASSINO,13.83072800035689,41.48845999966658,L.GO DANTE N.1 - Cassino (FR),True
SPO.IT1182A_8_chemi_1998-06-02_00:00:00,20231026000000,20231026000000,NO2,19.52,Âµg/m3,traffic,urban,197.0,IT1182A,P.S.GIOVANNI,12.44194000017551,43.08889000005819,VIA DELLA SCUOLA - Perugia (PG),True
SPO.IT1180A_8_chemi_1998-06-02_00:00:00,20231026000000,20231026000000,NO2,7.64,Âµg/m3,background,urban,290.0,IT1180A,CORTONESE,12.366110000057418,43.103059999810355,VIA GUERRA - Perugia (PG),True
SPO.IT1179A_8_chemi_2001-01-01_00:00:00,20231026000000,20231026000000,NO2,13.1579,Âµg/m3,background,rural,-2.0,IT1179A,GHERARDI,11.961110999624294,44.839721999721554,LOCALITA' GHERARDI - Jolanda di Savoia (FE),True
SPO.IT1125A_8_chemi_2001-09-05_00:00:00,20231026000000,20231026000000,NO2,21.71428,Âµg/m3,background,suburban,231.0,IT1125A,Vinovo - Volontari,7.6362000000395645,44.951299999746205,Via Garibaldi angolo via Volontari Italiani,True
SPO.IT1177A_8_chemi_1998-03-25_00:00:00,20231026000000,20231026000000,NO2,11.36842,Âµg/m3,background,urban,36.0,IT1177A,VI - Quartiere Italia,11.539721999677177,45.56055600015216,VIA TOMMASEO,True
SPO.IT1121A_8_chemi_2001-09-05_00:00:00,20231026000000,20231026000000,NO2,11.2381,Âµg/m3,background,rural,335.0,IT1121A,Druento - La Mandria,7.560200000042159,45.175799999984385,parco La Mandria c/o cascina Peppinella,True
SPO.IT1120A_8_chemi_2001-09-05_00:00:00,20231026000000,20231026000000,NO2,23.57143,Âµg/m3,background,suburban,268.0,IT1120A,Orbassano - Gozzano,7.549600000063796,45.00690000006244,Via Gozzano c/o Complesso Sportivo Comunale,True
SPO.IT1114A_8_chemi_2008-09-18_00:00:00,20231026000000,20231026000000,NO2,18.57143,Âµg/m3,background,suburban,499.0,IT1114A,Susa - Repubblica,7.05009999962578,45.13909999993112,Piazza delle Repubblica,True
SPO.IT1112A_8_chemi_2019-01-10_00:00:00,20231026000000,20231026000000,NO2,25.61,Âµg/m3,background,urban,29.0,IT1112A,Porcia,12.618710000287559,45.957670000236405,VIA CORRER - Porcia (PN),True
SPO.IT1110A_8_chemi_1998-03-10_00:00:00,20231026000000,20231026000000,NO2,11.1579,Âµg/m3,background,urban,5.0,IT1110A,PI-PASSI,10.401666999629917,43.73888900009769,PIAZZA I. NIEVO - Pisa (PI),True
SPO.IT1105A_8_chemi_2003-01-01_00:00:00,20231026000000,20231026000000,NO2,34.36842,Âµg/m3,traffic,urban,55.0,IT1105A,MONTEBELLO,10.336670000017003,44.78833000001908,VIA MONTEBELLO - Parma (PR),True
SPO.IT1104A_8_chemi_1997-02-11_00:00:00,20231026000000,20231026000000,NO2,21.05773,Âµg/m3,traffic,urban,77.0,IT1104A,PAVIA - P.ZZA MINERVA,9.146944000048608,45.18555599982121,P.ZZA MINERVA - Pavia (PV),True
SPO.IT1001A_8_chemi_1994-12-01_00:00:00,20231026000000,20231026000000,NO2,20.52941,Âµg/m3,traffic,urban,15.0,IT1001A,LU-MICHELETTO,10.512219999938319,43.84389000001542,VIA ELISA - PIAZZA S. MICHELETTO - Lucca (LU),True
SPO.IT0997A_8_chemi_1994-06-01_00:00:00,20231026000000,20231026000000,NO2,57.5067,Âµg/m3,traffic,urban,249.0,IT0997A,BERGAMO - VIA GARIBALDI,9.661667000411652,45.695687000114454,"VIA G.GARIBALDI , 11/13 - Bergamo (BG)",True
SPO.IT0992A_8_chemi_1995-01-02_00:00:00,20231026000000,20231026000000,NO2,2.263158,Âµg/m3,background,rural,388.0,IT0992A,FONTECHIARI,13.674326000348353,41.66917200027326,VIA REGINA MARGHERITA - Fontechiari (FR),True
SPO.IT0991A_8_chemi_1995-01-01_00:00:00,20231026000000,20231026000000,NO2,34.85,Âµg/m3,background,urban,440.0,IT0991A,ALATRI,13.338286000224132,41.727295999683896,PIAZZA BEATA MARIA DE MATTIAS - Alatri (FR),True
SPO.IT0989A_8_chemi_1994-11-01_00:00:00,20231026000000,20231026000000,NO2,3.45,Âµg/m3,background,rural,948.0,IT0989A,LEONESSA,12.962063000086847,42.57259099980925,STRADA PROVINCIALE - Leonessa (RI),True
SPO.IT0988A_8_chemi_2001-11-15_00:00:00,20231026000000,20231026000000,NO2,10.52857,Âµg/m3,background,rural,371.0,IT0988A,DONNAS,7.766430000165257,45.59660000013517,LOC. MONTEY - DONNAS (AO) - Donnas (AO),True
SPO.IT0983A_8_chemi_2005-01-01_00:00:00,20231026000000,20231026000000,NO2,24.52619,Âµg/m3,background,urban,581.0,IT0983A,AOSTA (PIAZZA PLOUVES),7.324170000149386,45.73583000025993,P.ZA PLOUVES - AOSTA - Aosta (AO),True
SPO.IT0977A_8_chemi_2008-01-01_00:00:00,20231026000000,20231026000000,NO2,1.5505,Âµg/m3,background,rural-remote,1640.0,IT0977A,LA THUILE,6.977780000292056,45.72917000008738,LOC. LES GRANGES - LA THUILE (AO) - La Thuile (AO),True
SPO.IT0908A_8_chemi_1993-11-01_00:00:00,20231026000000,20231026000000,NO2,12.59577,Âµg/m3,background,urban,1225.0,IT0908A,BORMIO,10.37250000042014,46.47027800024745,VIA MONTE BRAULIO - Bormio (SO),True
SPO.IT0906A_8_chemi_1993-11-01_00:00:00,20231026000000,20231026000000,NO2,17.68591,Âµg/m3,traffic,urban,307.0,IT0906A,SONDRIO - VIA MAZZINI,9.870556000301015,46.167221999868474,VIA MAZZINI - Sondrio (SO),True
SPO.IT0903A_8_chemi_1993-11-27_00:00:00,20231026000000,20231026000000,NO2,27.47368,Âµg/m3,background,suburban,150.0,IT0903A,CASTELLARANO,10.733888999896509,44.516111000289975,VIA REVERBERI - Castellarano (RE),True
SPO.IT0898A_8_chemi_1993-06-02_00:00:00,20231026000000,20231026000000,NO2,40.023,Âµg/m3,traffic,urban,46.0,IT0898A,NA06 MUSEO NAZIONALE,14.25132999975832,40.85419000021267,"PIAZZA MUSEO NAZIONALE,1 - Napoli (NA)",True
SPO.IT0895A_8_chemi_1994-01-01_00:00:00,20231026000000,20231026000000,NO2,22.05263,Âµg/m3,traffic,urban,4.0,IT0895A,ZALAMELLA,12.186670000308451,44.42860999977689,Via Giuseppe Zalamella - Ravenna (RA),True
SPO.IT0892A_8_chemi_2001-01-01_00:00:00,20231026000000,20231026000000,NO2,24.68421,Âµg/m3,background,urban,43.0,IT0892A,GIARDINI MARGHERITA,11.355000000380693,44.48332999987835,VIA MEDARDO BOTTONELLI - Bologna (BO),True
SPO.IT0860A_8_chemi_1992-12-18_00:00:00,20231026000000,20231026000000,NO2,36.78947,Âµg/m3,traffic,urban,41.0,IT0860A,FI-MOSSE,11.231389999994027,43.78582999969785,"VIA PONTE ALLE MOSSE, 211 - Firenze (FI)",True
SPO.IT0858A_8_chemi_1993-08-01_00:00:00,20231026000000,20231026000000,NO2,4.72,Âµg/m3,background,urban,85.0,IT0858A,QUARTO - GENOVA,8.991539999574638,44.394890000240494,"VIA MAGGIO, 3 - PROVINCIA - GENOVA (GE)",True
SPO.IT0856A_8_chemi_2016-01-01_00:00:00,20231026000000,20231026000000,NO2,7.9,Âµg/m3,background,urban,45.0,IT0856A,PARCO ACQUASOLA - GENOVA,8.94101000020152,44.40758999987383,VIALE IV NOVEMBRE - GENOVA (GE),True
SPO.IT0854A_8_chemi_2015-01-01_00:00:00,20231026000000,20231026000000,NO2,5.36,Âµg/m3,background,urban,105.0,IT0854A,CORSO FIRENZE - GENOVA,8.927369999792068,44.41815999999303,C.SO FIRENZE - GENOVA (GE),True
SPO.IT0852A_8_chemi_1995-01-01_00:00:00,20231026000000,20231026000000,NO2,11.82,Âµg/m3,traffic,urban,20.0,IT0852A,MULTEDO - PEGLI - GENOVA,8.825980000434635,44.425500000111455,VIA RONCHI - GENOVA (GE),True
SPO.IT0846A_8_chemi_1992-11-01_00:00:00,20231026000000,20231026000000,NO2,23.84969,Âµg/m3,industrial,suburban,147.0,IT0846A,REZZATO,10.313055999618083,45.50472200012565,VIA A.DE GASPARI - Rezzato (BS),True
SPO.IT0842A_8_chemi_1996-05-01_00:00:00,20231026000000,20231026000000,NO2,17.3684,Âµg/m3,industrial,rural,61.0,IT0842A,CORTE DEI CORTESI,10.007222000042717,45.27916699978092,V.VILLA - STRADA FORCA - Corte de' Cortesi con Cignone (CR),True
SPO.IT0840A_8_chemi_1999-11-01_00:00:00,20231026000000,20231026000000,NO2,21.29151,Âµg/m3,traffic,suburban,70.0,IT0840A,SORESINA,9.864166999642354,45.284721999699855,INCROCIO V.LANDRIANI/V.PIAVE - Soresina (CR),True
SPO.IT0761A_8_chemi_1991-10-01_00:00:00,20231026000000,20231026000000,NO2,30.60027,Âµg/m3,traffic,urban,122.0,IT0761A,MILANO - V.LE LIGURIA,9.182499999917045,45.449169999877256,STAZIONE METRO. ROMOLO - Milano (MI),True
SPO.IT0755A_8_chemi_1991-01-02_00:00:00,20231026000000,20231026000000,NO2,31.0,Âµg/m3,traffic,urban,26.0,IT0755A,ROMA,12.056389000129133,44.21500000018968,"VIALE ROMA,128 - ForlÃ¬ (FC)",True
SPO.IT0743A_8_chemi_1990-11-01_00:00:00,20231026000000,20231026000000,NO2,24.65204,Âµg/m3,background,urban,188.0,IT0743A,LONATO,10.48083299955679,45.46333300008629,VIA DEL MARCHESINO - Lonato del Garda (BS),True
SPO.IT0742A_8_chemi_1990-02-16_00:00:00,20231026000000,20231026000000,NO2,21.07899,Âµg/m3,background,suburban,345.0,IT0742A,ODOLO,10.385830000309879,45.63943999977801,VIA PRAES - Odolo (BS),True
SPO.IT0741A_8_chemi_1990-01-01_00:00:00,20231026000000,20231026000000,NO2,21.55158,Âµg/m3,background,rural,51.0,IT0741A,GAMBARA,10.29944399969604,45.24888900017322,VIA PARMA - Gambara (BS),True
SPO.IT0740A_8_chemi_2000-07-01_00:00:00,20231026000000,20231026000000,NO2,21.31186,Âµg/m3,background,urban,274.0,IT0740A,SAREZZO,10.200830000280735,45.654999999686844,VIA MINELLI - Sarezzo (BS),True
SPO.IT0737A_8_chemi_1990-11-01_00:00:00,20231026000000,20231026000000,NO2,23.18505,Âµg/m3,industrial,suburban,291.0,IT0737A,TAVERNOLA,10.041110000006762,45.713610000175635,VIA RIVA DI SOLTO - Tavernola Bergamasca (BG),True
SPO.IT0620A_8_chemi_1983-05-02_00:00:00,20231026000000,20231026000000,NO2,5.901803,Âµg/m3,background,suburban,60.0,IT0620A,SR - Via Gela,15.262505999557286,37.0984469999206,"Siracusa, Via Gela n.11 c/o Istituto Emanuele GiaracÃ ",True
SPO.IT0618A_8_chemi_1983-05-02_00:00:00,20231026000000,20231026000000,NO2,8.621147,Âµg/m3,background,urban,15.0,IT0618A,Augusta,15.220499999829137,37.218400000142275,"Augusta, Viale Risorgimento c/o Comando Marina",True
